N,country,state,city,lat,lon,dist
1,Algeria,,Algiers,28.0000272,2.9999825,10784.133239380384
5,Argentina,,Buenos Aires,-34.6075616,-58.437076,10371.860943417696
1,Argentina,,Córdoba,-32.0967361,-63.7940923,9824.820164972854
1,Argentina,,La Plata,-34.9206797,-57.9537638,10427.795428053105
4,Argentina,,Mendoza,-34.78719615,-68.4380712382687,9763.313749167211
1,Argentina,,Pergamino,-33.8951226,-60.5663735,10177.22669645938
1,Argentina,,Salta,-25.1076701,-64.3494964,9218.72648636106
2,Armenia,,Gyumri,40.77974155,43.8504210942473,11210.28468533988
6,Armenia,,Yerevan,40.16431325,44.5317329719653,11288.22178299828
54,Australia,ACT,Canberra,-35.2975906,149.1012676,12177.484846206793
1,Australia,NSW,Birmingham Gardens,-32.8927778,151.69,11831.081223446563
8,Australia,NSW,Callaghan,-32.8892352,151.6998983,11830.094886247429
1,Australia,NSW,Kensington,-33.9117191,151.2195058,11930.709583517728
1,Australia,NSW,Lismore,-28.79363905,153.26708675123,11446.30619365983
1,Australia,NSW,Mayfield West,-32.890084,151.7262824,11828.109929885013
3,Australia,NSW,Penrith,-33.7510792,150.6941684,11961.200385956072
5,Australia,NSW,Richmond,-33.6009721,150.7496405,11947.672442434607
41,Australia,NSW,Sydney,-33.8548157,151.2164539,11927.423306190483
1,Australia,NSW,Ultimo,-33.8794728,151.1984346,11930.33266144812
5,Australia,NSW,Wollongong,-34.4243941,150.89385,11987.275863297831
1,Australia,NT,Darwin,-12.46044,130.8410469,12321.37138684487
6,Australia,QLD,Brisbane,-27.4689682,153.0234991,11379.575378038851
1,Australia,QLD,Nathan,-27.548375,153.0474942,11382.827892724257
10,Australia,QLD,St Lucia,-27.4987362,153.0081642,11382.739940918347
8,Australia,SA,Adelaide,-34.9281805,138.5999312,12980.756590924942
1,Australia,SA,Bedford Park,-35.0233978,138.5698409,12988.222629829517
16,Australia,TAS,Hobart,-42.8825088,147.3281233,12741.986383825419
1,Australia,TAS,Kingston,-42.9749818,147.308221,12748.403903011425
1,Australia,TAS,Sandy Bay,-42.897129,147.3273528,12742.832069490774
2,Australia,VIC,Aspendale,-38.0219105,145.1024159,12639.975389821053
1,Australia,VIC,Carlton,-37.8004228,144.9684343,12637.891738102788
2,Australia,VIC,Clayton,-37.9173212,145.1304242,12632.039052966582
2,Australia,VIC,Hawthorn,-37.8355533,145.055224565243,12633.225275565033
41,Australia,VIC,Melbourne,-37.8142176,144.9631608,12639.059460370463
27,Australia,VIC,Parkville,-37.7871148,144.9515533,12638.4407741189
2,Australia,WA,Crawley,-31.9786343,115.817227,14746.15959213789
17,Australia,WA,Perth,-31.9527121,115.8604796,14741.260763935812
1,Australia,WA,West Perth,-31.9486588,115.841571,14742.717079867169
14,Austria,,Graz,47.0708678,15.4382786,9730.793957871429
6,Austria,,Innsbruck,47.26951525,11.3971372042211,9543.083640202776
8,Austria,,Laxenburg,48.0686831,16.3561206,9672.946085687916
3,Austria,,Salzburg,47.7981346,13.0464806,9564.752492136133
1,Austria,,Tirol,47.223193,11.5261028,9552.894823979886
16,Austria,,Vienna,48.2083537,16.3725042,9660.342463478437
1,Bangladesh,,Chattogram,22.3307998,91.8412863,12468.417446243744
1,Bangladesh,,Chittagong,22.3307998,91.8412863,12468.417446243744
10,Bangladesh,,Dhaka,23.7593572,90.3788136,12399.109389312574
1,Barbados,,Bridgetown,13.0977832,-59.6184184,6740.747581369603
1,Belarus,,Minsk,53.902334,27.5618791,9461.978264481731
1,Belgium,,Antwerp,51.2211097,4.3997081,8884.76454801164
27,Belgium,,Brussels,50.8465573,4.351697,8914.466345189256
1,Belgium,,Geel,51.1610826,4.9903187,8916.373026816736
9,Belgium,,Gent,51.0538286,3.7250121,8868.387907580462
1,Belgium,,Heverlee,50.85172925,4.69313075102807,8929.475692972632
1,Belgium,,Ixelles,50.8331141,4.3668279,8916.296807722432
10,Belgium,,Leuven,50.879202,4.7011675,8927.492434428701
15,Belgium,,Liege,50.6451381,5.5734203,8986.754964611158
6,Belgium,,Louvain-la-Neuve,50.6682012,4.6128839,8941.512042437755
1,Belgium,,Mol,51.1840421,5.1155267,8919.994076508377
1,Belgium,,Ukkel,50.8035441,4.3338445,8917.316045699366
1,Benin,,Abomey-Calavi,6.4153695,2.30622836336264,12502.345259787317
1,Benin,,Cotonou,6.3676953,2.4252507,12515.356780088901
1,Bermuda,,St.George's,32.3817465,-64.6817359,5217.063529683255
1,Brazil,,Amazonas,-4.479925,-63.5185396,7651.787100795686
6,Brazil,,Asa Norte,-15.7627976,-47.883951,9758.481542335026
2,Brazil,,Bauru,-22.3218102,-49.0705863,10132.627994062399
1,Brazil,,Belem,-1.45056,-48.4682453,8699.724837681937
1,Brazil,,Belo Horizonte,-19.9227318,-43.9450948,10373.364050925336
7,Brazil,,Brasilia,-10.3333333,-53.2,8929.891334091664
1,Brazil,,Cacapava Do Sul,-30.5113286,-53.4916761,10399.563908622944
1,Brazil,,Cachoeira Paulista,-26.7927162,-49.5319984,10418.710019061185
6,Brazil,,Campinas,-22.90556,-47.06083,10332.313444342517
1,Brazil,,Campo Grande MS,-20.4640173,-54.6162947,9565.723514127929
1,Brazil,,Centro,-22.9043934,-43.1830653,10641.157211208616
5,Brazil,,Curitiba,-25.4295963,-49.2712724,10340.503592892286
1,Brazil,,Florianópolis,-27.5973002,-48.5496098,10550.606764538357
1,Brazil,,Fortaleza,-3.7304512,-38.5217989,9723.71913485757
1,Brazil,,João Pessoa,-7.1215981,-34.882028,10272.16456001643
1,Brazil,,Viçosa,-20.7455607,-42.9179701,10514.022048481766
1,Brazil,,Manaus,-3.1316333,-59.9825041,7840.851897023523
1,Brazil,,Minas Gerais,-18.5264844,-44.1588654,10258.829254062617
3,Brazil,,Natal,-5.805398,-35.2080905,10154.861575124407
9,Brazil,,Niteroi,-22.8832371,-43.1154552,10645.139644153138
4,Brazil,,Ouro Preto,-20.3851692,-43.5036344,10441.401767391051
1,Brazil,,Paulinia,-22.7630391,-47.1532213,10314.929668830735
3,Brazil,,Piracicaba,-22.72528,-47.64917,10273.146091502795
8,Brazil,,Porto Alegre,-30.0324999,-51.2303767,10527.181279718436
2,Brazil,,Presidente Prudente,-22.1225167,-51.3882528,9937.582630810788
2,Brazil,RN,Natal,-5.805398,-35.2080905,10154.861575124407
1,Brazil,RS,Santa Maria,-29.6860512,-53.8069214,10315.635633194095
13,Brazil,,Rio De Janeiro,-22.9110137,-43.2093727,10639.497572272088
1,Brazil,SP,Sorocaba,-23.501667,-47.458056,10343.317295414292
2,Brazil,,Santa Maria,-29.6860512,-53.8069214,10315.635633194095
1,Brazil,,Santarem,-2.438489,-54.699611,8234.238886286514
1,Brazil,,Santos,-23.960833,-46.333889,10464.03074336815
29,Brazil,,Sao Jose dos Campos,-23.1805011,-45.8872969,10444.473090494588
2,Brazil,,Sao Leopoldo,-29.7544405,-51.1516497,10512.678644682364
15,Brazil,,Sao Paulo,-23.5506507,-46.6333824,10411.580140021744
1,Brazil,,São Carlos,-22.0183367,-47.890932,10203.750233305973
8,Brazil,,São Leopoldo,-29.7544405,-51.1516497,10512.678644682364
23,Brazil,,São Paulo,-23.5506507,-46.6333824,10411.580140021744
3,Brazil,,Vicosa,-20.7538586,-42.8815888,10517.560130290096
1,Brazil,,Vitoria,-20.3200917,-40.3376682,10696.715176362193
1,Burkina Faso,,Ouagadougou,12.368148,-1.527085,11738.459969706744
1,Canada,AB,Athabasca,54.7740629,-112.9256435,2037.1439290870169
61,Canada,AB,Calgary,51.02532675,-114.049868485806,1628.4383413746643
59,Canada,AB,Edmonton,53.535411,-113.507996,1895.949919195492
12,Canada,AB,Lethbridge,49.694285,-112.851562,1543.1698582228928
2,Canada,,Antigonish,45.7035589,-61.8626826,4997.8737586630705
1,Canada,BC,British Columbia,53.068471,-121.515303925465,1717.963637235892
14,Canada,BC,Burnaby,49.2433804,-122.9725459,1291.9693145708432
1,Canada,BC,Kamloops,50.6758269,-120.3394159,1459.472644679666
4,Canada,BC,Kelowna,49.889326,-119.498291,1382.3334243699933
4,Canada,BC,Prince George,53.9128645,-122.7453699,1810.8365523721843
1,Canada,BC,Revelstoke,50.998045,-118.1956709,1522.7275678572573
6,Canada,BC,Sidney,48.6505788,-123.3983246,1227.92149444162
72,Canada,BC,Vancouver,49.2608724,-123.1139529,1294.3791001360441
44,Canada,BC,Victoria,48.4283182,-123.3649533,1203.092063178147
1,Canada,,Burlington,43.3248924,-79.7966835,3626.287293526505
1,Canada,,Canmore,51.0866897,-115.3481135,1596.018195610378
1,Canada,MB,Brandon,49.8511143,-99.9608924,2245.5666113101643
9,Canada,MB,Winnipeg,49.884017,-97.168579,2426.702470331814
10,Canada,NB,Fredericton,45.966425,-66.645813,4627.261695054258
1,Canada,NL,Corner Brook,48.95317,-57.947388,5214.3629107080205
5,Canada,NL,St John's,47.561701,-52.715149,5628.232281589849
2,Canada,NS,Antigonish,45.7035589,-61.8626826,4997.8737586630705
1,Canada,NS,Dartmouth,44.6799707,-63.5720232,4890.451518561326
21,Canada,NS,Halifax,44.8543667,-63.137798,4919.95562690461
2,Canada,NT,Yellowknife,62.4709394,-114.4384901,2816.937097808389
4,Canada,ON,Edmonton,43.6688109,-79.3736894028481,3657.3330644860457
16,Canada,ON,Guelph,43.533783,-80.2306337,3589.460266881302
11,Canada,ON,Hamilton,43.2425289,-79.9470423,3614.8828780101253
1,Canada,ON,Harriston,43.9118312,-80.8690127,3535.4546131273996
6,Canada,ON,Kanata,45.3122012,-75.9051548,3918.792704632651
13,Canada,ON,Kingston,44.3054151,-76.4283781,3886.7703796992855
15,Canada,ON,London,42.9537654,-81.2291529,3513.4275954766435
1,Canada,ON,Markham,43.854336,-79.326782,3659.5466837329614
6,Canada,ON,Mississauga,43.590338,-79.645729,3636.1171576643133
1,Canada,ON,North Bay,46.3092115,-79.4607617,3638.3017705452276
1,Canada,ON,North York,43.7708175,-79.4132998,3653.289033799132
35,Canada,ON,Ottawa,45.421106,-75.690308,3934.698713826527
2,Canada,ON,Peterborough,44.3048009,-78.3199496,3736.3518024329123
1,Canada,ON,Sault Ste Marie,46.52391,-84.320068,3265.6588768098786
1,Canada,ON,St Catharines,43.167376,-79.241638,3672.7219504045024
2,Canada,ON,Sudbury,46.49272,-80.991211,3520.756613274923
2,Canada,ON,Thornhill,43.8161477,-79.4245925,3652.0111693315134
89,Canada,ON,Toronto,43.653963,-79.387207,3656.374207399932
49,Canada,ON,Waterloo,43.466874,-80.524635,3566.2757988391004
8,Canada,ON,Windsor,42.30423,-83.029861,3371.807005767146
1,Canada,QC,Chicoutimi,48.3370248,-71.1235261355927,4261.129555193461
2,Canada,QC,Dorval,45.4453082,-73.7510888,4085.69284419575
62,Canada,QC,Montreal,45.4972159,-73.6103642,4096.109192740342
14,Canada,QC,Quebec City,46.8259601,-71.2352226,4265.231234779236
3,Canada,QC,Rimouski,48.450155,-68.529968,4451.767592383115
1,Canada,QC,Rouyn-Noranda,48.2420524,-79.0205378,3675.4871228883285
1,Canada,QC,Saint-Hubert,45.5042755,-73.4216976,4110.714317653386
4,Canada,QC,Sherbrooke,45.403271,-71.889038,4231.116195267822
11,Canada,SK,Regina,50.44876,-104.61731,2004.7641090212544
34,Canada,SK,Saskatoon,52.131802,-106.660767,2026.2287012920408
1,Canada,YT,Whitehorse,60.721571,-135.054932,2718.8385074966027
6,Chile,,Concepcion,-36.8270776,-73.0502683,9680.294716021699
1,Chile,,Copiapó,-27.3664897,-70.3322733,9014.436516333199
1,Chile,,Metropolitana,-33.8201151,-70.7404378,9546.017257127676
3,Chile,,Punta Arenas,-53.1625446,-70.907785,11214.54043976566
53,Chile,,Santiago,-33.4377968,-70.6504451,9518.14035457917
1,Chile,,Temuco,-38.7362442,-72.5905979,9873.486128130326
2,Chile,,Valdivia,-39.8141965,-73.2458525,9934.708243548794
2,Chile,,Valparaiso,-33.0458456,-71.6196749,9427.928367212065
1,China,AL,Shenzhen,22.5445697,114.0545346,11117.261476692505
4,China,,Anhui,32.0,117.0,10147.158296521695
1,China,,Anshan,40.822222,122.8275,9084.283075794496
950,China,,Beijing,39.906217,116.3912757,9540.941337983553
14,China,,Changchun,43.8882168,125.3182578,8702.997346473621
10,China,,Changsha,28.1979483,112.97133,10720.094868791206
2,China,,Chao Yang District,23.2676436,116.5963975,10881.7568313565
34,China,,Chengdu,30.6624205,104.0633219,11041.101570057457
7,China,,Dalian,38.9181714,121.6282945,9304.694823849955
1,China,,Fujian,26.5450001,117.842778,10531.439163531682
3,China,,Gansu,38.0000001,101.9999999,10478.68261101045
16,China,,Guangdong,23.1357694,113.1982688,11126.99324213085
107,China,,Guangzhou,23.1301964,113.2592945,11123.310275323665
2,China,,Guilin,25.2777506,110.291804,11139.238425042153
6,China,,Guiyang,25.7561647,112.72964,10940.139247353296
1,China,,Haikou,20.0423626,110.3409936,11579.579297576207
2,China,,Hainan,19.2000001,109.5999999,11700.968676060149
2,China,,Handan,36.583333,114.483333,9926.497494623936
58,China,,Hangzhou,30.2489634,120.2052342,10075.584581965184
2,China,,Harbin,45.7656666,126.6160584,8488.688589148096
91,China,,Hefei,31.8228094,117.2218033,10147.212359802692
1,China,,Henan Province,34.0000001,113.9999999,10170.609147595693
4,China,,Hohhot,40.8337963,111.6730788,9728.309651296873
6,China,,Hong Kong,22.350627,114.1849161,11124.210218320386
17,China,,Hubei,31.15172525,112.87832224656,10478.155831960921
1,China,,Hunan,27.9995878,112.009538,10798.36639978955
16,China,,Jiangsu,33.0000001,119.9999999,9872.087784414376
1,China,,Jiangxi,28.0,116.0,10538.279039148227
1,China,,Jilin,42.9995032,125.9816054,8728.024164031916
6,China,,Jinan,36.6507007,117.1140042,9762.621005677218
2,China,,Kaifeng,34.7961106,114.3472038,10083.219742267556
11,China,,Kunming,25.0437977,102.714338,11625.554667803699
8,China,,Langfang,39.0481684,116.530659134763,9602.720633737343
79,China,,Lanzhou,36.0606904,103.8305691,10564.498804868514
1,China,,Lingang,29.0289189,117.3081853,10367.582392855276
1,China,,Linyi,37.1767104,116.8507744,9735.909312353235
7,China,,Nanchang,28.6792695,115.8885987,10490.168483476165
232,China,,Nanjing,32.0609736,118.7916458,10025.887668180378
4,China,,Nanning,22.8211654,108.3159756,11477.054061077613
2,China,,Nantong,31.9827896,120.8904588,9893.180620443154
58,China,,Qingdao,36.0634258,120.3785584,9606.117087023697
7,China,,Sanya,18.2534658,109.5034392,11787.47339266841
1,China,,Shaanxi,36.0,109.0,10292.001454271387
1,China,,Shaanxi Province,36.0,109.0,10292.001454271387
4,China,,Shandong,36.0000001,118.9999999,9698.194374277038
96,China,,Shanghai,31.2322735,121.4691749,9912.919111687219
1,China,,Shen Zhen,22.5445697,114.0545346,11117.261476692505
6,China,,Shenyang,41.8041094,123.4276363,8973.031661734762
50,China,,Shenzhen,22.5445697,114.0545346,11117.261476692505
2,China,,Shijiazhuang,38.04,114.47,9806.258366565986
4,China,,Sichuan,30.5000001,102.4999999,11141.91266095899
1,China,,Taipa,22.1573804,113.5601035,11183.190799613047
1,China,,Taiyuan,37.8561856,112.5561744,9931.944379918497
3,China,,Tianhe,23.12712,113.356424,11116.962438860839
15,China,,Tianjin,39.3032619,117.4163641,9529.76966423361
14,China,,Urumqi,43.8244074,87.6139038,10492.56079220862
10,China,,Weihai,37.5120997,122.1152599,9382.8682992317
181,China,,Wuhan,30.5951051,114.2999353,10435.260676112435
50,China,,Xi'an,34.3468421,108.9365887,10439.623502910885
5,China,,Xiamen,24.4586961,118.0745391,10682.425439715176
2,China,,Xiangtan,27.681864,112.626292,10785.566236457087
10,China,,Xining,36.6225321,101.7721957,10617.126222619687
3,China,,Xinjiang,41.7574769,87.167384230469,10717.965133152193
1,China,,Xishuangbanna,22.0356696,100.9021272,12004.556980440662
1,China,,Xuzhou,34.2665541,117.1809741,9951.786925382909
8,China,,Yangling,34.271725,108.0800183,10494.726248189296
1,China,,Yangzhou,32.3926973,119.4365759,9957.170393042932
2,China,,Yunnan,25.0,102.0,11671.015988677105
3,China,,Zhanjiang,21.081389,109.971389,11516.765857804137
6,China,,Zhengzhou,34.7591877,113.6524076,10128.225276076888
5,China,,Zhuhai,21.9745252,113.931350084859,11172.648754316922
23,Colombia,,Bogota,4.59808,-74.0760439,6109.238793502613
12,Colombia,,Medellin,6.2443382,-75.573553,5863.550268958578
1,Colombia,,Palmira,3.5308373,-76.2988048,6015.195651555941
1,Colombia,,Puerto Colombia,10.9891292,-74.955414,5564.088783898623
1,Colombia,,Villavicencio,4.1315113,-73.6206667,6181.424090493538
5,Costa Rica,,Heredia,10.17733225,-84.0590094272619,4889.323270239358
5,Costa Rica,,San Jose,9.9325427,-84.0795782,4906.852285207298
2,Cyprus,,Nicosia,35.18089155,33.3732585549737,11566.018331612495
2,Czech Republic,,Brno,49.1922443,16.6113382,9576.155956574596
30,Czech Republic,,Prague,50.0874654,14.4212535,9407.662376202174
1,Czech Republic,,Pruhonice,49.9952056,14.5648190305067,9421.8657422589
2,Côte D'ivoire,,Abidjan,5.4091179,-4.0422099,12073.294315107387
1,Côte D'ivoire,,Yamoussoukro,6.869145,-5.2823277,11862.942594147014
1,Denmark,,Aalborg,57.0482206,9.9193939,8602.043973936517
16,Denmark,,Aarhus,56.1496278,10.2134046,8693.042784249697
35,Denmark,,Copenhagen,55.6867243,12.5700724,8820.815886083567
1,Denmark,,Herlev,55.7248173,12.4377222,8812.583176882152
1,Denmark,,Hillerød,55.9285735,12.3063909,8789.27146919743
25,Denmark,,Lyngby,55.7718649,12.5051413,8810.70368738777
1,Ecuador,,Cuenca,-2.86616535,-79.1855137060336,6317.412287527433
1,Ecuador,,Loja,-3.996845,-79.2016661,6411.66919016692
9,Ecuador,,Quito,-0.2201641,-78.5123274,6146.834784356242
1,Egypt,,Assiut,27.2693562,31.2972204,12316.41565520347
1,Egypt,,Cairo,30.048819,31.243666,12028.49809060141
1,Egypt,,Helwan,29.8500001,31.333333,12052.17622732524
5,Estonia,,Tartu,58.3801207,26.72245,8984.943679729633
1,Ethiopia,,Addis Ababa,9.0107934,38.7612525,14484.51374364402
1,Ethiopia,,Bahir Dar,11.5947981,37.3879783,14164.669797925239
1,Ethiopia,,Jimma,8.051086,37.1326289641648,14521.545627215131
2,Ethiopia,,Mekelle,13.4966096,39.4767857,14039.057735389153
1,Fiji,,Suva,-18.1415884,178.4421662,8739.251060525969
2,Finland,,Aalto,60.1855185,24.8282140542567,8757.027870803333
4,Finland,,Espoo,60.2051454,24.6569676,8750.89900978606
3,Finland,,Eurajoki,61.2018184,21.7296943,8579.007756784209
28,Finland,,Helsinki,60.1674086,24.9425683,8761.61376449595
1,Finland,,Joensuu,62.6008163,29.7605356,8619.114131444978
1,Finland,,Masala,60.1574075,24.5319207,8752.621231430281
5,Finland,,Oulu,65.0118734,25.4716809,8287.64888744644
1,Finland,,Rovaniemi,66.4976214,25.7192101,8143.617032880068
1,Finland,,Sodankylä,67.4189716,26.5902179,8067.445942570144
4,Finland,,Turku,60.4517531,22.2670522,8666.481002086743
9,France,,Aix-en-Provence,43.5298424,5.4474738,9595.673159587166
1,France,,Antony,48.753554,2.2959423,8994.513302316765
8,France,,Arpajon,48.5902899,2.2477303,9005.816288717504
3,France,,Aubiere,45.7512575,3.1144195,9287.516410690381
1,France,,Auvergne-Rhône-Alpes,45.2968119,4.6604809,9403.765939339013
1,France,,Baie Mahault,16.2679458,-61.5870766,6365.12587759297
1,France,,Beaumont,50.0839627,2.6567465,8900.461827475354
1,France,,Besançon,47.2380222,6.0243622,9302.29829538208
2,France,,Bordeaux,44.841225,-0.5800364,9170.709211124036
1,France,,Bouguenais,47.1710167,-1.6531115,8925.077022530899
4,France,,Brest,48.3905283,-4.4860088,8679.40782397584
1,France,,Cachan,48.7945413,2.3340758,8992.934914853253
2,France,,Caen,49.1828008,-0.3690815,8828.12559146988
1,France,,Castanet Tolosan,43.517214,1.4980801,9391.23543979297
2,France,,Champs-sur-Marne,48.8526892,2.6027219,9001.048932188902
1,France,,Chateaubourg,48.1094489,-1.39365051206888,8863.054793054744
1,France,,Chatenay-Malabry,48.7696832,2.2251795,8989.732613879654
1,France,,Chatou,48.8897044,2.1573695,8976.423342879976
1,France,,Cherbourg-en-Cotentin,49.62727515,-1.60901502653337,8730.303327304167
10,France,,Clermont-Ferrand,45.7774551,3.0819427,9283.661522891653
2,France,,Créteil,48.7771486,2.4530731,9000.150437900125
1,France,,Douai,50.3703683,3.0761377,8896.086898429003
1,France,,Dunkerque,51.0347708,2.3772525,8807.955259661272
1,France,,Marne-la-Vallée,48.8497513,2.67159197239168,9004.614388619842
12,France,,Gif-Sur-Yvette,48.7018823,2.134529,8990.988849064921
30,France,,Grenoble,45.1875602,5.7357819,9466.378696568856
6,France,,Guyancourt,48.7709414,2.0706084,8982.118674001274
1,France,,La Ciotat,43.1758591,5.6062495,9634.404440383027
3,France,,La Rochelle,46.1591126,-1.1520434,9033.096517970818
2,France,,Le Grand Quevilly,49.4068986,1.0507926,8879.7474586368
7,France,,Lille,50.6365654,3.0635282,8873.132282485369
1,France,,Limoges,45.8354243,1.2644847,9185.997299311966
17,France,,Lyon,45.6963425,4.73594802991681,9373.191949145605
11,France,,Montpellier,43.6112422,3.8767337,9508.296719526765
2,France,,Marne-la-Vallée,48.8497513,2.67159197239168,9004.614388619842
4,France,,Marseille,43.2961743,5.3699525,9611.96518085954
1,France,,Massy,48.730158,2.2766735,8995.533973492462
9,France,,Meudon,48.8126688,2.2385432,8986.790304002285
1,France,,Mont-Saint-Aignan Cedex,49.4672976,1.0630469,8875.365933841102
3,France,,Nancy,48.6937223,6.1834097,9183.263662904972
6,France,,Nantes,47.2186371,-1.5541362,8926.424680119464
4,France,,Nice,43.7009358,7.2683912,9671.643346947038
1,France,,Nouvelle-Aquitaine,45.4039367,0.3756199,9175.355587418495
37,France,,Orléans,47.9027336,1.9086066,9046.560495044283
4,France,,Orsay,48.699184,2.187457,8993.7880243575
2,France,,Palaiseau,48.7144587,2.2453842,8995.326836441698
173,France,,Paris,48.8566101,2.3514992,8988.588116662944
7,France,,Pau,43.2957547,-0.3685668,9308.54615952011
1,France,,Perpignan,42.6990297,2.8344615,9531.150709826748
2,France,,Pessac,44.805615,-0.6308396,9170.88605338224
14,France,,Plouzané,48.3817165,-4.6212044,8672.921339978982
1,France,,Pointe à Pitre,16.2408636,-61.5334077,6371.550679588416
2,France,,Ramonville-Saint-Agne,43.5460533,1.4749101,9387.592628895958
12,France,,Rennes,48.1113387,-1.6800198,8848.162316932941
2,France,,Rouen,49.4404591,1.0939658,8879.08324963246
2,France,,Rueil-Malmaison,48.87778,2.1802832,8978.5291738848
15,France,,Saint Martin d'Hères,45.1836683,5.75448,9467.634780617534
2,France,,Saint-Denis,48.935773,2.3580232,8982.283751612158
3,France,,Saint-Germain-En-Laye,48.9356069,2.09177218201086,8969.414480357085
2,France,,Saint-Maur Des Fossés,48.8033057,2.4853015,8999.518611742289
1,France,,Saint-Égrève,45.2325079,5.681781,9459.827773783752
2,France,,Sophia-Antipolis,43.619776,7.0477082,9667.898537179033
17,France,,Strasbourg,48.584614,7.7507127,9264.069682008176
5,France,,Talence,44.8088438,-0.5879629,9172.92593604714
59,France,,Toulouse,43.6044622,1.4442469,9381.085092838117
17,France,,Valbonne,43.641141,7.0086255,9664.090360290165
2,France,,Vandoeuvre-les-Nancy,48.6599676,6.1724618,9185.692489781573
2,France,,Verneuil-en-Halatte,49.273664,2.5188916,8961.75174504421
1,France,,Versailles,48.8035403,2.1266886,8982.124731761269
1,France,,Villenave-d'Ornon,44.7737872,-0.5595029,9177.315516890141
6,France,,Villeneuve d'Ascq,50.6193174,3.1314002,8877.728373849517
13,France,,Villeurbanne,45.7733105,4.8869339,9374.023192157216
1,French Polynesia,,Faa'a,-17.5843066,-149.566528954947,6741.454951216501
7,Georgia,,Tbilisi,41.6934591,44.8014495,11125.2833106124
1,Germany,,Gehrden,52.313508,9.6008438,9012.24564818187
6,Germany,,Aachen,50.776351,6.083862,8998.142034969787
1,Germany,,Augsburg,48.3668041,10.8986971,9421.845579539511
1,Germany,,Bad Koetzting,49.1758229,12.8529347,9429.661693619571
12,Germany,,Bayreuth,49.9427202,11.5763079,9307.05228273729
22,Germany,,Berlin,52.5170365,13.3888599,9142.406790540796
13,Germany,,Bochum,51.4818111,7.2196635,8986.28238456105
10,Germany,,Bonn,50.735851,7.10066,9046.368438095851
5,Germany,,Braunschweig,52.2646577,10.5236066,9053.853785531282
25,Germany,,Bremen,53.0758196,8.8071646,8912.189788582213
13,Germany,,Bremerhaven,53.5522264,8.5865509,8861.110978726247
6,Germany,,Cologne,50.938361,6.959974,9022.540204752839
3,Germany,,Darmstadt,49.872775,8.651177,9189.82534746644
6,Germany,,Dresden,51.0493286,13.7381437,9291.646117704171
4,Germany,,Erlangen,49.5981187,11.003645,9314.61895064126
1,Germany,,Flintbek,54.2432092,10.0633244,8857.972648595965
11,Germany,,Frankfurt,50.1106444,8.6820917,9170.03703839597
4,Germany,,Freiberg,50.9169415,13.3428889,9288.522969840735
4,Germany,,Freiburg,47.9960901,7.8494005,9320.448925458195
4,Germany,,Garmisch-Partenkirchen,47.4938359,11.103992,9509.95309233246
4,Germany,,Geesthacht,53.4397121,10.3682538,8941.938128121248
2,Germany,,Goettingen,51.5327604,9.9352051,9095.806806062752
9,Germany,,Göttingen,51.5327604,9.9352051,9095.806806062752
4,Germany,,Halle,51.4825041,11.9705452,9182.492261021405
24,Germany,,Hamburg,53.550341,10.000654,8917.577954129707
16,Germany,,Hannover,52.3744779,9.7385532,9012.379814204887
2,Germany,,Heidelberg,49.4093582,8.694724,9232.885072404668
1,Germany,,Hessen,50.6118537,9.1909725,9147.15835102335
30,Germany,,Jena,50.9281717,11.5879359,9217.744890024234
25,Germany,,Jülich,50.9220931,6.3611015,8997.742583625748
21,Germany,,Karlsruhe,49.0068705,8.4034195,9255.824199967154
1,Germany,,Kassel,51.3076867,9.4624705,9096.432589476592
2,Germany,,Katlenburg-Lindau,51.6704185,10.0926728739291,9089.895624756018
46,Germany,,Kiel,54.3227085,10.135555,8853.644755512947
1,Germany,,Koblenz,50.3533278,7.5943951,9101.445636930177
3,Germany,,Kühlungsborn,54.135532,11.7544063490566,8932.297341368949
20,Germany,,Leipzig,51.3406321,12.3747329,9211.468736089877
2,Germany,,Lindenberg,53.7651998,13.0225848,9013.601413551609
1,Germany,,Magdeburg,52.1315889,11.6399609,9110.238041626511
29,Germany,,Mainz,50.0012314,8.2762513,9162.17988901646
1,Germany,,Marburg,50.8117327,8.7757742,9111.775752702779
45,Germany,,Munich,48.1371079,11.5753822,9471.645808102605
1,Germany,,Mülheim/Ruhr,51.4272925,6.8829192,8976.539934481068
1,Germany,,Müncheberg,52.5037484,14.1404688,9171.879510239374
5,Germany,,Münster,51.9501317,7.61330165026119,8962.02620180885
1,Germany,,Neubiberg,48.0769935,11.6615136,9480.796488875256
24,Germany,,Oberpfaffenhofen,48.0732582,11.2649062,9464.205150397824
4,Germany,,Offenbach am Main,50.1055002,8.7610698,9173.893826964244
92,Germany,,Potsdam,52.4009309,13.0591397,9140.589996170245
1,Germany,,Rostock,54.0924445,12.1286127,8950.28197578064
2,Germany,,Siegen,50.8749804,8.0227233,9074.047242867953
1,Germany,,Starnberg,48.0001038,11.3508972,9474.546921128433
11,Germany,,Stuttgart,48.7784485,9.1800132,9310.305882044213
7,Germany,,Tübingen,48.5236164,9.0535531,9327.494800173603
2,Germany,,Wessling,48.0739105,11.2523969,9463.60985539035
1,Germany,,Würzburg,49.79245,9.932966,9251.95139620925
2,Ghana,,Accra,5.5600141,-0.2057437,12370.959382051338
10,Greece,,Athens,37.9841493,23.7279843,10942.705378345192
1,Greece,,Heraklion,35.3400127,25.1343475,11261.524588099115
2,Greece,,Patras,38.246242,21.7350847,10837.032543119634
2,Greece,,Thessaloniki,40.6403167,22.9352716,10648.508727520339
1,Greece,,Xanthi,41.1380289,24.8862688,10671.438686407042
1,Greenland,,Nuuk,64.175029,-51.7355386,5394.901591229737
1,Guadeloupe,,Gourbeyre,15.9950443,-61.6919417,6373.056276181358
2,Guadeloupe,,Pointe à Pitre,16.2408636,-61.5334077,6371.550679588416
2,Haiti,,Port-au-Prince,18.547327,-72.3395928,5280.104379915342
76,Hong Kong,,Hong Kong,22.2605004,114.189496,11131.295914846347
2,Hungary,,Budapest,47.4983815,19.0404707,9829.775806316213
1,Hungary,,Eger,47.8989887,20.3743665,9839.553206013548
1,Hungary,,Sopron,47.6803063,16.5983457,9719.243049527517
20,Iceland,,Reykjavik,64.24450355,-21.7692635721513,6788.370748429153
2,India,,Agra,27.1752554,78.0098161,12523.838260905562
5,India,,Ahmedabad,23.0216238,72.5797068,13112.319820419834
1,India,,Aizawl,23.7414092,92.7209297,12288.088208898547
21,India,,Bangalore,12.9791198,77.5912997,14029.845507881517
2,India,,Bengaluru,12.9791198,77.5912997,14029.845507881517
3,India,,Bhopal,23.2530923,77.3962718,12956.996883115826
2,India,,Bhubaneswar,20.2667774,85.8435592,12951.89943861877
1,India,,Bihta,25.5618295,84.8665194223224,12455.709941331568
3,India,,Chandigarh,30.7194022,76.7646552,12182.227436659421
4,India,,Chennai,13.0801721,80.2838331,13916.365715841821
1,India,,Cochin,9.9546015,76.2918739,14392.452889851013
1,India,,Cuttack,20.4686,85.8792,12930.039267943142
5,India,,Dehradun,30.3255646,78.0436813,12189.266277251678
10,India,,Dhanbad,23.7952809,86.4309638,12571.277190629655
1,India,,Dibrugarh,27.4844597,94.9019447,11819.330617573278
1,India,,Gadanki,13.3985753,79.3515743,13920.382471505136
4,India,,Gandhinagar,23.2232877,72.6492267,13088.945923671663
2,India,,Goa,15.3004543,74.0855134,13899.903585660826
9,India,,Guwahati,26.1805978,91.753943,12097.102137991273
1,India,,Haryana,29.0,76.0,12385.71306612295
18,India,,Hyderabad,17.38878595,78.4610647345315,13538.531449952527
1,India,,Jaipur,26.916194,75.820349,12612.928088367373
1,India,,Jatni,20.171497,85.6780632,12968.688733562929
2,India,,Jodhpur,26.2967719,73.0351433,12748.68510238618
2,India,,Jorhat,26.7577925,94.2079645,11923.373704818972
12,India,,Kanpur,26.4609135,80.3217588,12526.774059928312
6,India,,Karnataka,14.5203896,75.7223521,13932.149334217143
1,India,,Kerala,10.3529588,76.5119752,14342.922370555756
25,India,,Kharagpur,22.34309,87.3012875,12679.634648093926
1,India,,Khordha,20.22564715,85.5605946512523,12968.322796272078
1,India,,Khurda,20.1617378,85.7052429,12968.490800005316
14,India,,Kolkata,22.5677459,88.3476023,12610.491037656064
1,India,,Kollam,8.8870537,76.5907058,14492.987781434083
1,India,,Kurukshetra,30.0,76.75,12259.284980596367
3,India,,Mandi,31.6723392,76.9533169077914,12075.705726963482
1,India,,Mangalore,12.8698101,74.8430082,14134.74895429655
1,India,,Manipal,13.3519723,74.7870308,14085.488615432278
22,India,,Mumbai,18.9387711,72.8353355,13545.203211466047
1,India,,Nagpur,21.1500964,79.0127048991187,13126.179574018613
5,India,,Navi Mumbai,19.0308262,73.0198537,13530.566997377151
61,India,,New Delhi,28.6141793,77.2022662,12394.438034482835
1,India,,New Panvel,18.9993761,73.1239899,13531.233683951707
1,India,,Noida,28.5726442,77.3547609,12394.592584033639
1,India,,Odisha,20.5431241,84.6897321,12973.311296103146
1,India,,Panjim,15.4989946,73.8282141,13886.224340181221
1,India,,Patiala,30.2389556,76.3309372129232,12244.817298296148
17,India,,Pune,18.521428,73.8544541,13562.857653126277
1,India,,Rajgir,25.0350026,85.3661130486146,12489.550882476797
1,India,,Ranchi,23.3700354,85.3250132,12660.288270551837
1,India,,Rewari,28.1956468,76.6165179,12455.071845761382
42,India,,Roorkee,29.8693496,77.8902124,12241.955130653572
3,India,,Rourkela,22.2309255,84.8678705,12794.675934322378
1,India,,Shillong,25.5760446,91.8825282,12150.175312157626
1,India,,Sonipat,28.9483239,76.9096316,12366.967435833521
3,India,,Srinagar Garhwal,30.2238064,78.7879045,12178.72743154934
1,India,,Telangana,17.8495919,79.1151663,13467.284487252191
4,India,,Thiruvananthapuram,8.5058909,76.9570481,14518.940981118483
3,India,,Tirupati,13.6316368,79.4231711,13893.530285386862
3,India,,Trivandrum,8.5058909,76.9570481,14518.940981118483
2,India,,Umiam,25.5118571,91.7692625,12161.80686891636
1,India,,Uttarakhand,30.0417376,79.089691,12189.090014060344
3,India,,Varanasi,25.3356491,83.0076292,12549.706313590808
2,India,,Vastrapur,23.0400861,72.5290418,13111.5249254789
1,India,,Visakhapatnam,17.7231276,83.3012842,13317.807497415506
6,Indonesia,,Bandung,-6.9344694,107.6049539,13951.354245073433
3,Indonesia,,Jakarta,-6.1753942,106.827183,13958.54816644981
1,Indonesia,,Yogyakarta,-7.8011945,110.364917,13785.37983684116
2,Iran,,Tehran,35.7006177,51.4013785,11860.883167225844
2,Ireland,,Cork,51.8979282,-8.4705806,8205.679268770597
26,Ireland,,Dublin,53.3497645,-6.2602732,8210.266094664164
1,Israel,,Arad,31.2612199,35.214581,12032.912217657014
1,Israel,,Ariel,31.7900763,35.2029687,11976.93794869298
8,Israel,,Beer Sheva,31.2525238,34.7905787,12020.92008942048
2,Israel,,Bet-Dagan,32.0004347,34.8306669,11943.61452281281
7,Israel,,Haifa,32.8191218,34.9983856,11862.594675660059
1,Israel,,Herzliya,32.1720339,34.8309983825015,11925.599366309152
23,Israel,,Jerusalem,31.778345,35.2250786,11978.83376668607
2,Israel,,Midreshet Ben-Gurion,30.85187875,34.783115375959,12062.733450305757
1,Israel,,Ramat-Gan,32.0686867,34.8246812,11936.264323169084
9,Israel,,Rehovot,31.8952532,34.8105616,11954.051655350535
1,Israel,,Sede Boker,32.1726488,34.8328214,11925.589835441331
1,Israel,,Sitriya,31.8918834,34.844046,11955.421654302518
4,Israel,,Tel Aviv,32.0804808,34.7805274,11933.688302072087
1,Italy,,Ancona,43.6170137,13.5170982,9972.04655354348
1,Italy,,Appiano Sulla Strada Del Vino,46.4553328,11.2590488,9611.195426603692
1,Italy,,Arsita,42.5021622,13.7828361,10087.428956611633
2,Italy,,Aversa,40.973212,14.204928,10248.867158579784
1,Italy,,Bari,41.1257843,16.8620293,10353.068911801542
18,Italy,,Bologna,44.4936714,11.3430347,9793.632773011626
2,Italy,,Bolzano,46.4981125,11.3547801,9611.515397831046
5,Italy,,Cagliari,39.2169525,9.1128513,10162.163159521428
2,Italy,,Calabria,39.0565974,16.5249864,10534.473972204398
4,Italy,,Catania,37.5022355,15.08738,10614.251336750078
1,Italy,,Como,45.8115623,9.0830353,9571.010093532921
1,Italy,,Firenze,43.7698712,11.2555757,9855.56178372417
6,Italy,,Florence,43.7698712,11.2555757,9855.56178372417
1,Italy,,Forlì,44.2227182,12.0412435,9850.057041922562
3,Italy,,Frascati,41.8082452,12.6803684,10101.186343608226
1,Italy,,Genoa,44.40726,8.9338624,9689.475438591518
5,Italy,,Ispra,45.815457,8.6101375,9548.72748418114
2,Italy,,L'Aquila,42.3489203,13.3979672,10084.226933045511
1,Italy,,La Spezia,44.107033,9.8282255,9758.594502370743
1,Italy,,Latium,41.9808038,12.7662312,10089.267871148333
1,Italy,,Liguria,44.4777617,8.7026296,9672.209502504094
3,Italy,,Messina,38.1937571,15.5542082,10571.3466825404
13,Italy,,Milan,45.4668,9.1905,9606.813815461173
2,Italy,,Modena,44.6458885,10.9255707,9760.741098813358
15,Italy,,Naples,40.8359336,14.2487826,10263.669697757674
17,Italy,,Padova,45.4077172,11.8734455,9734.009189616583
2,Italy,,Padua,45.4077172,11.8734455,9734.009189616583
19,Italy,,Palermo,38.1112268,13.3524434,10474.272252701336
6,Italy,,Pavia,45.1860043,9.1546375,9630.263558865972
5,Italy,,Perugia,43.1119613,12.3890104,9967.810462517175
1,Italy,,Pescara,42.469613,14.2059269,10109.448875446597
6,Italy,,Pisa,43.7159395,10.4018624,9820.77613766065
1,Italy,,Politecnico di Bari,41.1113837,16.8832335,10355.358616932093
9,Italy,,Potenza,40.6384046,15.8022077,10352.517051216419
1,Italy,,Rende,39.3319934,16.1843828,10493.022291682524
1,Italy,,Rimini,44.0593886,12.5684371,9888.79820367025
100,Italy,,Rome,41.894802,12.4853384,10084.152633418977
4,Italy,,Sassari,40.7232643,8.5610074,9999.71131291445
1,Italy,,Tito Scalo,40.6088563,15.6935842,10350.442269199144
4,Italy,,Torino,45.0677551,7.6824892,9571.234895331932
1,Italy,,Trentino-Alto Adige,46.441472,11.282121,9613.474507638795
3,Italy,,Trento,46.0664228,11.1257601,9640.677277817153
3,Italy,,Trieste,45.6500335,13.7706559,9794.360756761705
4,Italy,,Turin,45.0677551,7.6824892,9571.234895331932
1,Italy,,Urbino,43.7262608,12.6363135,9922.52222666033
1,Italy,,Venice,45.4371908,12.3345898,9751.702400630358
3,Italy,,Viterbo,42.4168441,12.1051148,10018.534687724576
1,Jamaica,,Kingston,17.9712148,-76.7928128,4931.207129394603
3,Japan,,Abiko,35.863999,140.0280653,8265.447014810054
3,Japan,,Aichi,34.9991645,137.254574,8525.531528996271
1,Japan,,Aizu-Wakamatsu,37.48043,139.942135,8168.455042213104
3,Japan,,Akita,39.6898802,140.342608,8000.457454512762
5,Japan,,Aomori,40.886943,140.590121,7908.699538725383
47,Japan,,Bunkyo-ku,35.71881,139.744732,8295.657141152
24,Japan,,Chiba,35.549399,140.2647303,8268.140046024926
1,Japan,,Chiyoda-ku,35.6938097,139.7532163,8296.64202142831
2,Japan,,Chofu,35.660036,139.554815,8313.436522912281
1,Japan,,Fuchu,35.6611119,139.4734451,8319.357974114713
21,Japan,,Fukuoka,33.6251241,130.6180016,9098.77328286877
3,Japan,,Fukushima,37.760777,140.4745807,8112.098659418296
4,Japan,,Gifu,35.7867449,137.0460777,8488.447362728733
1,Japan,,Gokasho Uji,34.9127792,135.804302,8636.957793814216
2,Japan,,Hachioji,35.660175,139.283071,8333.424237976313
5,Japan,,Higashi-Hiroshima,34.42683,132.741552,8890.888306158626
1,Japan,,Hirosaki,40.6030543,140.4640389,7935.09692825678
4,Japan,,Hiroshima,34.3916058,132.4518156,8914.043314249486
1,Japan,,Hitachinaka,36.3965834,140.5346906,8194.139325949078
40,Japan,,Ibaraki,36.2869536,140.4703384,8205.848333527905
1,Japan,,Imizu,36.7304657,137.0753818,8423.887162068286
1,Japan,,Izuka,39.8993271,140.0733581,8006.4289763327415
2,Japan,,Kagawa,34.2480104,134.0586579,8808.635513046996
1,Japan,,Kagoshima,31.521587,130.5474077,9254.362970613733
62,Japan,,Kanagawa,35.4342935,139.374753,8341.301065116242
10,Japan,,Kanazawa,36.561627,136.6568822,8465.09942496018
10,Japan,,Kashiwa,35.858532,139.989053134594,8268.672517774607
1,Japan,,Kasuga,33.5330716,130.4704269,9115.829600964622
1,Japan,,Kasugai,35.273804,137.007459,8525.317246006827
3,Japan,,Kawasaki,35.523142,139.708024,8310.974582056793
1,Japan,,Kazo,36.1312558,139.6019429,8279.598434840624
3,Japan,,Kitakyushu,33.8829996,130.8749015,9062.15621864865
15,Japan,,Kobe,34.6932379,135.1943764,8696.035859092435
8,Japan,,Kochi,33.6569018,133.5606241,8885.487900007829
2,Japan,,Kokubunji,35.709674,139.454224,8317.63460914792
6,Japan,,Kumamoto,32.6450475,130.6341345,9167.649275480506
1,Japan,,Kunitachi,35.681991,139.43624,8320.746709340974
5,Japan,,Kusatsu,35.0179088,135.96046,8618.544476560704
74,Japan,,Kyoto,35.021041,135.7556075,8633.185550319591
2,Japan,,Matsue,35.468115,133.048768,8796.625674435507
5,Japan,,Matsumoto,36.2382047,137.9687141,8391.781858262
5,Japan,,Matsuyama,33.8395188,132.7653521,8930.169576822944
5,Japan,,Meguro,35.62125,139.688014,8306.124106502184
1,Japan,,Mie-Ken,34.7339685,136.5154489,8597.223780622513
2,Japan,,Mito,36.3657792,140.4713933,8200.752473750543
1,Japan,,Miyagi,38.3880155,140.9761025,8036.423575368018
1,Japan,,Morioka,39.7006008,141.1367118,7943.335663037255
1,Japan,,Nagano,36.1143945,138.0319015,8395.304541925845
1,Japan,,Nagaoka,37.446996,138.8512199,8249.4207829089
1,Japan,,Nagareyama,35.8562314,139.9026259,8275.186869126088
1,Japan,,Nagasaki,33.1154683,129.7874339,9194.284440622596
44,Japan,,Nagoya,35.1851045,136.8998438,8539.05845271857
3,Japan,,Nankoku,33.5755463,133.6413009,8885.279824093263
1,Japan,,Nara,34.2963089,135.8816819,8672.938598241275
1,Japan,,Neyagawa,34.76751,135.633907,8659.132926046024
6,Japan,,Niigata,37.6452283,138.7669125,8242.709846325686
1,Japan,,Nomi,36.4392262,136.5424414,8481.443625894351
1,Japan,,Okayama,34.8581334,133.7759256,8786.953117493384
4,Japan,,Okinawa,26.5707754,128.0255901,9799.81282173766
1,Japan,,Onagawa,38.4496158,141.4431144,7998.828484805697
5,Japan,,Osaka,34.6937569,135.5014539,8673.736441364941
14,Japan,,Sagamihara,35.56559,139.236215,8342.998276154978
3,Japan,,Saitama,35.9754168,139.4160114,8303.279761675092
1,Japan,,Sakai,34.529124,135.50156,8684.881277148796
36,Japan,,Sapporo,43.0614489,141.354538,7723.3239553976455
47,Japan,,Sendai,38.2677554,140.8691498,8051.671430227413
6,Japan,,Shizuoka,34.9332488,138.0955398,8468.21416489647
1,Japan,,Tachikawa,35.69797,139.4135537,8321.382800647938
2,Japan,,Takamatsu,34.3425592,134.0465338,8803.002212552841
1,Japan,,Tobata,33.8971785,130.8206343,9064.996912246335
1,Japan,,Tokai,35.044082,136.90902,8547.783731559295
2,Japan,,Tokai-Mura,36.42373485,140.757037035344,8176.060580938014
2,Japan,,Tokai-mura,36.42373485,140.757037035344,8176.060580938014
216,Japan,,Tokyo,35.6828387,139.7594549,8296.888769753848
5,Japan,,Tottori,35.3555075,133.8678525,8746.148878936643
4,Japan,,Toyama,36.6468015,137.2183531,8419.13279570519
8,Japan,,Tsu,34.7339963,136.5101724,8597.607078565354
91,Japan,,Tsukuba,36.0833877,140.0765098,8247.819111670882
1,Japan,,Uji,34.8933744,135.8059219,8638.149172405458
1,Japan,,Wako,35.7817053,139.6058692,8301.82845448335
6,Japan,,Yamaguchi,34.2379614,131.5873845,8986.401558259751
1,Japan,,Yatsushiro,32.5081425,130.6020211,9179.747050279895
10,Japan,,Yokohama,35.444991,139.636768,8321.277879839781
5,Japan,,Yokosuka,35.24063,139.660865,8332.69817449091
1,Japan,,Yurihonjo city,39.3858771,140.0487402,8040.3541533536545
1,Kazakhstan,,Astana,51.15092055,71.4388595154859,10077.612345577105
8,Kenya,,Nairobi,-1.2832533,36.8172449,15456.962229486202
1,Kuwait,,Kuwait City,29.3797091,47.9735629,12519.676837493089
1,Latvia,,Riga,56.9493977,24.1051846,9062.314916205753
1,Lebanon,,Beirut,33.8959203,35.47843,11763.16894379141
2,Luxembourg,,Belvaux,49.509811,5.9304454,9100.922378702398
1,Luxembourg,,Esch-sur-Alzette,49.4959628,5.9850306,9104.602201960359
2,Luxembourg,,Luxembourg,49.8158683,6.1296751,9083.418233363294
2,Macao,,Macao,22.1956294,113.548784711485,11180.812828233646
2,Malta,,Msida,35.8955967,14.4891548,10735.334170718299
1,Mexico,,Chihuahua,28.5000001,-106.0000001,1829.9567363149663
12,Mexico,,Ciudad DE Armería,18.93869,-103.9661162,2737.1517394848174
1,Mexico,,Colima,19.166667,-104.0,2714.884836805865
1,Mexico,,Coyoacan,19.32804005,-99.1510634069359,3031.127966222717
1,Mexico,,Cuernavaca,18.9218274,-99.2342282,3058.15718381908
12,Mexico,,Ensenada,30.1927661,-115.231462577994,1055.9950712874847
4,Mexico,,Guadalajara,20.6720375,-103.3383962,2628.288169213552
1,Mexico,,Jalapa,17.77080775,-92.8021515574159,3626.9667591644156
1,Mexico,,Jiutepec,18.88638935,-99.1701224011532,3065.6132526810525
2,Mexico,,La Paz,19.36376855,-98.9463135985561,3042.9918908436894
28,Mexico,,Mexico City,19.4326009,-99.1333416,3023.967174281174
1,Mexico,,Monterrey,25.63978365,-100.293101629066,2471.4478646323564
2,Mexico,,Morelia,19.7027116,-101.1923818,2856.2145649080317
1,Mexico,,Nuevo Morelos,22.5147575,-99.2044813952631,2779.2684450750075
1,Mexico,,Obregón,19.3098859,-98.9075803,3050.1226472097114
1,Mexico,,Puerto Angel,15.666667,-96.490556,3521.0721599877356
6,Mexico,,Querétaro,20.8542575,-99.84756,2858.7920858306106
1,Mexico,,Recursos Naturales,19.4371909,-99.1800032964874,3020.238329279258
1,Mexico,,Texcoco,16.571667,-97.033333,3407.6243693460387
1,Mongolia,,Ulaanbaatar,47.949809,106.966724193881,9343.351333294317
1,Morocco,,Ben Guerir,32.239034,-7.958131,9718.221354260426
1,Morocco,,Beni Mellal,32.334193,-6.353335,9819.222562855368
3,Morocco,,Casablanca,33.5950627,-7.6187768,9636.900528257669
1,Morocco,,Fés,34.0346534,-5.0161926,9774.242913810032
2,Morocco,,Rabat,34.022405,-6.834543,9656.0333645146
5,Nepal,,Dhulikhel,27.618921,85.552917,12219.22165558153
30,Nepal,,Kathmandu,27.708796,85.320244,12219.056813754867
4,Nepal,,Lalitpur,27.6767339,85.316805,12222.460197604132
18,Netherlands,,Amsterdam,52.3745403,4.89797550561798,8808.558896672348
1,Netherlands,,Bilthoven,52.14995205,5.21090262051023,8841.43462890446
5,Netherlands,,De Bilt,52.1038467,5.19093085070224,8844.511181945605
26,Netherlands,,Delft,51.9994572,4.362724538544,8816.937460264737
3,Netherlands,,Den Burg,52.4449771,5.8403894,8843.374309040864
1,Netherlands,,Dwingeloo,52.8402233,6.39900292868391,8833.064425233333
3,Netherlands,,Enschede,52.22336325,6.87059566409799,8906.644637575171
2,Netherlands,,Groningen,53.2217925,6.55824533479853,8806.706682812013
1,Netherlands,,Leeuwarden,53.19968475,5.80069089560234,8776.694858919198
1,Netherlands,,Nieuwegein,52.0298704,5.09293340872922,8846.5528950365
6,Netherlands,,Noordwijk,52.2698999,4.45268588175161,8797.935180511726
1,Netherlands,,Schoonhoven,51.9506681,4.8492301,8842.606566390106
3,Netherlands,,The Hague,52.07494555,4.26968022053645,8806.401517844131
52,Netherlands,,Utrecht,52.0809856,5.12768396945229,8843.700841676267
12,Netherlands,,Wageningen,51.9685817,5.66829806182796,8876.958045513666
2,New Zealand,,Alexandra,-45.2535683,169.3870836,11441.972008271146
21,New Zealand,,Auckland,-36.852095,174.7631803,10476.29047289469
1,New Zealand,,Canterbury,-43.49417615,171.809844758414,11167.780635944207
7,New Zealand,,Christchurch,-43.51047865,172.581130548387,11123.208350142006
8,New Zealand,,Dunedin,-45.8739282,170.503488,11421.582359016282
4,New Zealand,,Hamilton,-37.7879076,175.2818068,10517.179640612372
18,New Zealand,,Lower Hutt,-41.2125751,174.9057626,10808.339039796514
1,New Zealand,,New Plymouth,-39.0579941,174.0806474,10690.906685254062
1,New Zealand,,Otago,-45.1299859,169.5248818,11424.797633184451
4,New Zealand,,Palmerston North,-40.356317,175.6112388,10699.055045776036
21,New Zealand,,Wellington,-41.2887953,174.7772114,10821.955035461704
3,Niger,,Niamey,13.524834,2.109823,11920.31107289049
1,Nigeria,,Abuja,9.0643305,7.4892974,12680.448018130593
2,Nigeria,,Garki,12.4303749,9.11304156330107,12514.38556989355
2,Nigeria,,Ibadan,7.3777462,3.8972497,12548.87060059824
1,Nigeria,,Ikeja,6.5960605,3.340787,12568.295826562955
2,Nigeria,,Ile Ife,7.216667,4.866667,12635.598468053086
9,Nigeria,,Lagos,6.4550575,3.3941795,12583.583976187603
1,Nigeria,,Uyo,5.0322447,7.924791,13043.21552614037
1,Nigeria,,Zaria,11.0248119,7.6518533115866,12529.370946089413
1,Norway,,Andenes,69.322131,16.1222343,7670.133678552037
47,Norway,,Bergen,60.3943055,5.3259192,8145.0659238471435
1,Norway,,Hønefoss,60.1666996,10.2550853,8336.356210626089
2,Norway,,Kjeller,59.9731544,11.0463826,8380.014708353407
3,Norway,,Longyearbyen,78.2231558,15.6463656,6853.446560997048
24,Norway,,Oslo,59.9133301,10.7389701,8375.122929310231
7,Norway,,Tromsø,69.6492969,18.9548489,7700.079836402208
22,Norway,,Trondheim,63.4305658,10.3951929,8051.670717053105
1,Norway,,Tønsberg,59.2922933,10.4348349537099,8420.264040142127
1,Norway,,Ås,59.67928085,10.7741636405024,8397.216875321055
3,Oman,,Muscat,23.4830409,58.5920889068222,13239.539305568525
2,Pakistan,,Islamabad,33.63573935,72.9230467027632,11958.308672157653
1,Pakistan,,Karachi,25.1446897,67.1847767315734,12985.051398570326
1,Pakistan,,Lahore,31.5656079,74.3141775,12151.785984928276
1,Pakistan,,Punjab,31.0,72.0,12262.41310360007
2,Pakistan,,Rawalpindi,33.5914237,73.0535122,11960.445937708186
1,Panama,,Ancon,8.9986493,-79.5665794,5334.145406097067
4,Panama,,Balboa,8.3479957,-78.8971729791261,5437.119258886541
3,Panama,,Panama City,8.9714493,-79.5341802,5338.800870105308
1,Paraguay,,San Lorenzo,-25.3425224,-57.509397,9719.720657363157
3,Peru,,Arequipa,-16.3988667,-71.5369607,8001.2656925842975
1,Peru,,Cusco,-13.5258001,-71.9639903,7729.914567005995
1,Peru,,La Molina,-12.0901768,-76.9223377966789,7264.03815504318
17,Peru,,Lima,-12.0621065,-77.0365256,7253.869229327594
10,Philippines,,Quezon City,14.6509905,121.0486155,11230.231177130885
2,Poland,,Krakow,50.0469432,19.9971534358367,9616.896872292751
1,Poland,,Lublin,51.2181945,22.5546775651927,9586.927056586084
1,Poland,,Olsztyn,53.7766839,20.476507,9269.314683955068
3,Poland,,Poznań,52.4082663,16.9335199,9282.34293714694
1,Poland,,Skrzatow 1,51.73976415,19.6243621898661,9439.610757655571
1,Poland,,Sopot,54.44190905,18.5430944457045,9142.607043019421
22,Poland,,Warsaw,52.2337172,21.0714111288323,9439.270662231662
3,Poland,,Wroclaw,51.1089776,17.0326689,9409.52020689066
1,Portugal,,Alges,38.7027915,-9.2287735,9142.612778770817
1,Portugal,,Aveiro,40.640496,-8.6537841,9032.801897727913
2,Portugal,,Coimbra,40.2109801,-8.4292057,9079.226839093557
2,Portugal,,Covilha,40.26586015,-7.53608382632971,9130.425785637119
2,Portugal,,Faro,37.0537571,-7.93193661699148,9350.998014521932
10,Portugal,,Lisbon,38.7077507,-9.1365919,9148.130485948128
1,Portugal,,Queluz,38.7549578,-9.25724478121169,9136.866915185446
1,Portugal,,Porto,41.1494512,-8.6107884,8997.067212494736
1,Portugal,,Vila Real,41.2966556,-7.74678,9038.89108582638
2,Puerto Rico,,San Juan,18.465299,-66.116666,5830.206946732182
3,Qatar,,Doha,25.30132655,51.4957047073798,13009.76556804201
3,Reunion,,Saint-Denis,-20.8799889,55.448137,18136.67766319568
1,Romania,,Bucharest,44.4361414,26.1027202,10381.270845515315
1,Romania,,Iasi,47.161494,27.5840504,10150.971861736885
1,Russia,,Irkutsk,52.289597,104.280586,9068.659489056357
3,Russia,,Krasnoyarsk,56.0090968,92.8725147,9107.110674699872
46,Russia,,Moscow,55.7504461,37.6174943,9485.475429785796
2,Russia,,Novosibirsk,55.0282171,82.9234509,9459.096511709304
2,Russia,,Petropavlovsk-Kamchatskiy,53.0199693,158.6472187,6090.124641166988
1,Russia,,Skolkovo,53.3193964,50.7457846,9906.482150488795
7,Russia,,St Petersburg,59.938732,30.316229,8905.398357132397
5,Russia,,Tomsk,56.488712,84.952324,9262.024692039608
1,Russia,,Tyumen,57.153534,65.542274,9475.021415524825
1,Russia,,Yekaterinburg,56.839104,60.60825,9532.558190799245
4,Saudi Arabia,,Dhahran,26.2966528,50.1202146,12885.703705285468
2,Saudi Arabia,,Jeddah,21.5822247,39.1640396,13173.828785155363
1,Saudi Arabia,,Riyadh,24.6319692,46.7150648,13019.982378684237
13,Saudi Arabia,,Thuwal,22.2833454,39.1128145,13097.878591009126
3,Senegal,,Dakar,14.693425,-17.447938,10293.488572571005
60,Singapore,,Singapore,1.340863,103.830391822121,13605.197928353577
3,Slovenia,,Ljubljana,46.0498146,14.5067824,9788.25365464505
6,South Africa,,Cape Town,-33.928992,18.417396,16482.725356477098
1,South Africa,,Die Boord,-33.9466667,18.8502778,16521.394536711636
2,South Africa,,Durban,-29.861825,31.009909,17423.57381425439
1,South Africa,,Hermanus,-34.4175,19.2361111,16571.05578887324
4,South Africa,,Johannesburg,-26.205,28.049722,16971.01897440261
1,South Africa,,Mahikeng,-25.863611,25.658611,16747.63383863052
1,South Africa,,Potchefstroom,-26.707778,27.095833,16918.856200617764
1,South Africa,,Pretoria,-25.7459374,28.1879444,16955.40739843718
1,South Africa,,Wits,-26.18726435,28.029923888507,16968.29899429153
1,South Korea,,Andong-Si,36.5634886,128.7260798,9019.139757186587
4,South Korea,,Ansan,37.3217152,126.8308604,9091.03073396608
1,South Korea,,Anseong,37.007773,127.279971,9084.201811905741
1,South Korea,,Anyang,37.3938528,126.9570605,9077.352553210549
1,South Korea,,Bukgu,37.5063399,126.723429275,9084.547568891752
73,South Korea,,Busan,35.1799528,129.0752365,9095.218543867035
1,South Korea,,Cheonan,36.8150283,127.1140654,9109.438466503449
2,South Korea,,Cheongju,36.6421169,127.4891742,9096.977793341943
18,South Korea,,Chuncheon,37.8810569,127.7297641,8990.422923388858
2,South Korea,,Chungcheongbuk-do,36.8584149,127.7095746,9066.35642116768
15,South Korea,,Daegu,35.8713,128.6018,9077.72384012323
59,South Korea,,Daejeon,36.3496,127.3848,9125.436337783194
1,South Korea,,Donghae,37.5245142,129.1146302,8923.593100682954
1,South Korea,,Gangneung,37.7525313,128.8759523,8923.24331016175
4,South Korea,,Gangwon-do,37.885,127.7297,8990.139950134531
1,South Korea,,Goesan-Gun,36.815,127.7866,9064.350382457418
10,South Korea,,Gongju,36.47257,127.09124,9136.142876365024
7,South Korea,,Goyang,37.6581862,126.8319452,9066.195328513482
1,South Korea,,Gwacheon,37.4289037,126.9881655,9072.71297756411
11,South Korea,,Gwangju,35.1595775,126.8515089,9249.130966022472
8,South Korea,,Gyeonggi-do,37.2752,127.0095,9082.592215571938
1,South Korea,,Gyeongsan,35.825122,128.741329,9071.52350996313
22,South Korea,,Incheon,37.456,126.7052,9089.462755679358
4,South Korea,,Jeju,33.3939924,126.5626653,9399.745287196822
2,South Korea,,Jeollabuk-do,35.7395078,127.1181259,9188.274030861186
3,South Korea,,Jeonju,35.8242715,127.1480657,9180.009288808034
1,South Korea,,Jinju,35.1803459,128.1079953,9161.80178485351
1,South Korea,,Kunsan,35.9679984,126.7369036,9197.149962962882
1,South Korea,,Naju-si,35.0158859,126.7108313,9269.32006999578
5,South Korea,,Pohang,36.0189315,129.3429384,9016.293858749441
6,South Korea,,Sejong,36.4799999,127.289,9122.315075893244
1,South Korea,,Seodaemun,37.5657953,126.9666351,9064.080346412708
3,South Korea,,Seogwipo-si,33.2541176,126.566967132955,9409.839538809174
234,South Korea,,Seoul,37.5666791,126.9782914,9063.243597335531
1,South Korea,,Suwon,37.2633325,127.0287472,9082.185014896544
2,South Korea,,Taejon-City,36.3496,127.3848,9125.436337783194
13,South Korea,,Ulsan,35.5391697,129.3119136,9052.96116805821
26,South Korea,,Yongin,37.2405741,127.1785572,9073.889784283154
2,Spain,,A Coruña,43.3712091,-8.3958768,8842.75688384422
1,Spain,,Alcalá de Henares,40.4818396,-3.3644973,9365.446106502588
1,Spain,,Alicante,38.353738,-0.4901846,9707.077142120264
1,Spain,,Andalusia,37.3399964,-4.5811614,9541.059214299672
37,Spain,,Barcelona,41.3828939,2.1774322,9606.718958172418
1,Spain,,Bilbao,43.2630051,-2.9349915,9168.368508902504
1,Spain,,Burgos,42.343926,-3.696977,9197.974136008057
2,Spain,,Burjassot,39.5090599,-0.4108581,9616.827876424215
1,Spain,,Castelló de la Plana,39.9860347,-0.0377354,9599.064766987874
1,Spain,,Esporles,39.6692405,2.5775624,9773.212494594029
9,Spain,,Granada,37.183054,-3.6021928,9614.203051851446
2,Spain,,Las Palmas de Gran Canaria,28.128874,-15.4349448,9489.40720775678
1,Spain,,Leioa,43.3271048,-2.9846079,9160.452299584174
1,Spain,,Lleida,41.6147605,0.6267842,9501.955918969457
21,Spain,,Madrid,40.4167047,-3.7035825,9350.575829268204
1,Spain,,Malaga,36.7213028,-4.4216366,9599.946222653552
1,Spain,,Ourense,42.1968459,-7.6114105,8978.600683863679
4,Spain,,Oviedo,43.3533424,-5.87951433952683,8992.408790304105
1,Spain,,Palencia,42.0108856,-4.5328735,9175.700223868838
1,Spain,,Palma de Mallorca,39.5695818,2.6500745,9785.671783091086
4,Spain,,Salamanca,40.9651572,-5.6640182,9190.469473341698
4,Spain,,San Cristobal de La Laguna,28.4857715,-16.3159422,9397.929845112329
2,Spain,,San Fernando,36.45787,-6.2048562,9507.823847622141
2,Spain,,Santa Cruz de Tenerife,28.469648,-16.2540884,9403.71268676985
2,Spain,,Santander,43.4620412,-3.8099719,9102.97317815494
2,Spain,,Tarrasa,41.5629885,2.0102442,9582.454295243746
2,Spain,,Torrejón de Ardoz,40.4587767,-3.4793343,9360.501984094206
2,Spain,,Tres Cantos,40.6065826,-3.7065333,9335.313174044782
5,Spain,,Valencia,39.4699014,-0.3759513,9622.064730547665
11,Spain,,Villanueva de la Canada,40.4472106,-4.002795,9330.394300112783
4,Spain,,Zaragoza,41.84004695,-1.16950900924476,9382.830377058508
1,Sri Lanka,,Badulla,6.9898202,81.0569425,14503.189988588698
1,Sri Lanka,,Matara,5.947822,80.5482919,14631.365316913918
2,Sri Lanka,,Peradeniya,7.2642107,80.5930652,14496.37829239565
2,Sweden,,Falun,60.6070068,15.6323059,8466.712941827289
9,Sweden,,Gothenburg,57.7072326,11.9670171,8615.517041339504
3,Sweden,,Kiruna,67.8550724,20.2255482,7897.818852581803
1,Sweden,,Lulea,65.5831187,22.1459535,8159.920074224193
15,Sweden,,Lund,55.7029296,13.1929449,8841.538029243453
2,Sweden,,Norrköping,58.5909124,16.1903511,8672.692945785706
24,Sweden,,Stockholm,59.3251172,18.0710935,8660.030980113757
1,Sweden,,Sundsvall,62.3907552,17.3071024,8347.161997632105
10,Sweden,,Umeå,63.84206435,20.25361200207,8285.036951017253
18,Sweden,,Uppsala,59.8586126,17.6387436,8596.549626170157
1,Sweden,,Villavägen,59.0259101,12.2903538,8506.802921053206
1,Sweden,,Västerås,59.6110992,16.5463679,8587.55919915839
4,Switzerland,,Basel,47.5581077,7.5878261,9347.1371373228
17,Switzerland,,Bern,46.9482713,7.4514512,9394.540896516062
1,Switzerland,,Birmensdorf,47.3538481,8.4382157,9404.05639612556
1,Switzerland,,Bougy-Villars,46.4787593,6.3545367,9384.03484421265
5,Switzerland,,Davos,46.7961744,9.8237266,9516.491271126653
8,Switzerland,,Duebendorf,47.3968244,8.6183023,9408.410478903728
19,Switzerland,,Geneva,46.2017559,6.1466014,9398.21451124802
1,Switzerland,,Guemligen,46.9345928,7.5110516,9398.515536225143
1,Switzerland,,Kastanienbaum,47.0130792,8.33487,9429.586814286666
23,Switzerland,,Lausanne,46.5218269,6.6327025,9393.498228680559
1,Switzerland,,Lugano,46.0050102,8.9520281,9547.681860323477
1,Switzerland,,Ottikon,47.4353544,8.7167797,9409.438651071028
1,Switzerland,,Pfungen,47.5161123,8.6454232,9399.027895292746
1,Switzerland,,Purasca,45.9779043,8.8510918,9545.436479410277
2,Switzerland,,Vaud,46.6356963,6.5320717,9378.780928509665
6,Switzerland,,Villigen,47.5262684,8.2147282,9378.599170464864
1,Switzerland,,Wettingen,47.4678661,8.3220846,9388.658409569929
1,Switzerland,,Winterthur,47.4991723,8.7291498,9404.316759739642
109,Switzerland,,Zurich,47.3723941,8.5423328,9407.13802209468
1,Taiwan,,Changhua,24.0755667,120.5444667,10537.161710032668
6,Taiwan,,Chiayi,23.4811089,120.4535412,10590.25751888446
3,Taiwan,,Chung Li,24.14191,120.680586906271,10522.176199134161
2,Taiwan,,Douliou,23.7050525,120.5372523,10566.683502300608
9,Taiwan,,Hsinchu,24.8066333,120.9686833,10449.532475738672
2,Taiwan,,Hualien,23.99486475,121.604243358312,10466.869866422094
17,Taiwan,,Jhongli,24.96238315,121.210117459441,10420.062720623064
5,Taiwan,,Kaohsiung,22.6203348,120.3120375,10667.905295079318
3,Taiwan,,Keelung,25.1317232,121.744652,10368.483130042901
10,Taiwan,,Taichung,24.163162,120.6478282,10522.870987275763
17,Taiwan,,Tainan,22.9912348,120.184982,10648.064273194188
156,Taiwan,,Taipei,25.0375198,121.5636796,10388.81727027431
34,Taiwan,,Taoyuan,24.993923,121.30168,10411.033738835775
1,Tajikistan,,Dushanbe,38.5762709,68.7863573,11489.977977765642
1,Tanzania,,Morogoro,-6.86835,37.8138001448415,16059.975952606961
5,Thailand,,Bangkok,13.7538929,100.8160803,12755.348882429127
2,Thailand,,Chiang Mai,18.790876,98.988048,12413.775872316723
1,Thailand,,Pathumthani,13.97270675,100.519769294791,12754.891805051186
2,Thailand,,Surathani,9.1243004,99.3096003104925,13263.940846200443
1,Tunisia,,Medenine,33.339592,10.491185,10762.483119991222
6,Turkey,,Ankara,39.9207774,32.854067,11054.951153433172
1,Turkey,,Artvin,41.160506,41.8398627,11134.228554781886
1,Turkey,,Bursa,40.182737,29.0678352,10911.899357996066
12,Turkey,,Istanbul,41.0096334,28.9651646,10823.717318049084
1,Turkey,,Izmir,38.4147331,27.1434119,11026.919749843179
1,Turkey,,Kocaeli,40.765382,29.9406983,10879.795710076238
6,Turkey,,Maslak,41.1254819,29.0151681,10813.431620064268
7,Uganda,,Kampala,0.3177137,32.5813539,15085.832260500694
4,Ukraine,,Kyiv,50.4500336,30.5241361,9894.173155729062
11,United Arab Emirates,,Abu Dhabi,23.99764435,53.6439097569213,13170.746969669564
4,United Arab Emirates,,Dubai,25.0750095,55.1887608818332,13059.366622239306
2,United Kingdom,,Hatfield,51.7634675,-0.2258741,8625.914755878686
11,United Kingdom,,Aberdeen,57.1482429,-2.0928095,8113.573466596856
1,United Kingdom,,Ambleside,54.431954,-2.9630528,8285.698729833022
1,United Kingdom,,Belfast,54.5964411,-5.9302761,8133.120211116317
3,United Kingdom,,Bath,51.3813864,-2.3596963,8553.576671588646
24,United Kingdom,,Birmingham,52.4775396,-1.894053,8489.396995035664
1,United Kingdom,,Bramhall,53.3575953,-2.1661435,8407.005162262854
2,United Kingdom,,Brighton,50.8220399,-0.1374061,8706.412999937003
49,United Kingdom,,Bristol,51.4538022,-2.5972985,8536.208396628754
64,United Kingdom,,Cambridge,52.2034823,0.1235817,8606.73160132262
17,United Kingdom,,Cardiff,51.4816546,-3.1791934,8505.365508386156
1,United Kingdom,,Conwy,53.14642505,-3.75913464221729,8347.64024576142
3,United Kingdom,,Coventry,52.4081812,-1.510477,8513.180504782627
1,United Kingdom,,Croxley Green,51.6508446,-0.4454648,8624.578566098691
1,United Kingdom,,Derby,52.9212617,-1.4761491,8473.999707349049
1,United Kingdom,,Devon,50.75,-3.75,8533.973120467668
7,United Kingdom,,Didcot,51.6056908,-1.2467923,8589.822556273415
3,United Kingdom,,Dorking,51.2325184,-0.3306724,8663.86569357279
28,United Kingdom,,Durham,54.7764152,-1.5758539,8322.414522842693
9,United Kingdom,,Exeter,50.725562,-3.5269108,8547.11267884946
3,United Kingdom,,East Kilbride,55.760176,-4.179078,8127.41988461197
1,United Kingdom,,East Yorkshire,53.7958531,-1.5367126,8401.7642503608
23,United Kingdom,,Edinburgh,55.9533456,-3.1883749,8157.658594033372
11,United Kingdom,,Egham,51.4312585,-0.5473085,8637.429931399338
1,United Kingdom,,Elstree,51.6436161,-0.2994431,8632.113124174037
13,United Kingdom,,Exeter,50.725562,-3.5269108,8547.11267884946
1,United Kingdom,,Whitchurch Hill,51.5072399,-1.077644,8605.850665729686
10,United Kingdom,,Glasgow,55.8611389,-4.2501672,8116.485296304461
11,United Kingdom,,Hull,53.7435722,-0.3394758,8460.963170682797
1,United Kingdom,,St Andrews,56.3403902,-2.7955844,8145.377665673928
1,United Kingdom,,Keyworth,52.8686943,-1.09097980270598,8496.28504081471
19,United Kingdom,,Lancaster,54.0484068,-2.7990345,8323.194871394171
57,United Kingdom,,Leeds,53.7974185,-1.5437941,8401.312484806227
18,United Kingdom,,Leicester,52.6361398,-1.1330789,8512.879070309988
1,United Kingdom,,Letchworth,51.9767243,-0.2305199,8608.450281227866
2,United Kingdom,,Lincoln,53.2336301,-0.5392172,8492.754353869035
19,United Kingdom,,Liverpool,53.407154,-2.991665,8364.103848846418
117,United Kingdom,,London,51.5073219,-0.1276474,8651.31618313896
8,United Kingdom,,Loughborough,52.7723859,-1.2077985,8498.48443446113
3,United Kingdom,,Cranfield,52.0690205,-0.6079317,8583.16008102379
1,United Kingdom,,Malvern,52.1159559,-2.3258985,8497.235953316305
16,United Kingdom,,Manchester,53.4794892,-2.2451148,8393.700749228436
1,United Kingdom,,Middlewich,53.1927371,-2.4453171,8406.786232528468
4,United Kingdom,,Milton Keynes,52.0429797,-0.7589607,8578.093546585229
1,United Kingdom,,Northampton,52.2381355,-0.8963907,8555.913740146529
2,United Kingdom,,Norwich,52.628606,1.29227,8626.086406657701
6,United Kingdom,,Newcastle-Upon-Tyne,54.9738474,-1.6131572,8305.145963559984
12,United Kingdom,,Nottingham,52.9534193,-1.1496461,8486.771918668535
55,United Kingdom,,Oxford,51.7520131,-1.2578499,8577.59051992181
1,United Kingdom,,Penryn,50.1685495,-5.1034063,8509.796304049536
1,United Kingdom,,Pitlochry,56.7043809,-3.7333722,8075.6308323991725
4,United Kingdom,,Plymouth,50.3712659,-4.1425658,8543.502510040287
1,United Kingdom,,Portishead,51.4806882,-2.7768562,8525.27112193686
4,United Kingdom,,Portsmouth,50.8036831,-1.075614,8662.392862766475
45,United Kingdom,,Reading,51.45149525,-0.983634249936538,8614.847952794773
1,United Kingdom,,Swindon,51.5613683,-1.7856853,8567.307415272808
1,United Kingdom,,Salford,53.4877463,-2.2891921,8390.980328074365
15,United Kingdom,,Sheffield,53.3806626,-1.4702278,8437.782218180977
42,United Kingdom,,Southampton,50.9137978,-1.39904048346365,8637.773575819274
5,United Kingdom,,St Andrews,56.3403902,-2.7955844,8145.377665673928
1,United Kingdom,,Staffordshire,52.8246942,-2.00745467233481,8456.537700778435
1,United Kingdom,,Surbiton,51.3937557,-0.3033105,8652.133373913917
2,United Kingdom,,Surrey,51.2715316,-0.341452351129091,8660.193455710365
2,United Kingdom,,Swansea,51.6195955,-3.9459248,8456.630316820005
1,United Kingdom,,Teddington,51.4277844,-0.333653,8647.931661944116
1,United Kingdom,,Thatcham,51.4024177,-1.257412,8605.57141951438
1,United Kingdom,,Tranent,55.9444972,-2.9534938,8168.919309200241
4,United Kingdom,,Tyne and Wear,54.916667,-1.566667,8311.759083165129
1,United Kingdom,,Uxbridge,51.5449509,-0.4816672,8631.39741954413
6,United Kingdom,,Wallingford,51.5982316,-1.1252158,8596.270637625792
9,United Kingdom,,York,53.9590555,-1.0815361,8409.772674051364
39,United States,AK,Anchorage,61.2163129,-149.8948523,3245.949220265308
110,United States,AK,Fairbanks,64.837845,-147.716675,3453.946825703857
1,United States,AK,Finland,47.4146362,-91.2490485,2756.5388561103423
3,United States,AK,Fort Wainwright,70.6206581,-159.849329021738,4268.300589278558
5,United States,AK,Juneau,58.3019496,-134.419734,2459.9934565705134
1,United States,AK,Seldovia,59.4388204,-151.7120131,3200.4555189665675
1,United States,AK,Wasilla,61.5824216,-149.4425638,3255.151699789627
34,United States,AL,Auburn,32.527002,-85.4367484053398,3394.602541816787
1,United States,AL,Dauphin Island,30.2542022,-88.1124817,3252.538529690426
1,United States,AL,Florence,34.79981,-87.677251,3118.8362388616656
110,United States,AL,Huntsville,34.6686435,-86.4418197139765,3231.5391706576756
2,United States,AL,Madison,34.7736807,-86.5675095,3217.214518262106
3,United States,AL,Mobile,30.6943566,-88.0430541,3239.2269156791576
1,United States,AL,Muscle Shoals,34.7451786,-87.6686733,3121.2681939205854
57,United States,AL,Tuscaloosa,33.2095614,-87.5675258,3181.358823721688
1,United States,AR,Bentonville,36.3728538,-94.2088172,2502.429307461326
16,United States,AR,Fayetteville,36.0625843,-94.1574328,2514.140477730712
2,United States,AR,Hot Springs,34.5038393,-93.0552437,2653.931381489844
3,United States,AR,Jonesboro,35.8428646,-90.7034522,2823.2615150056718
1,United States,AZ,Cave Creek,33.8333716,-111.9507042,1032.5133467000576
1,United States,AZ,Coolidge,32.977839,-111.517624,1113.5689816410402
60,United States,AZ,Flagstaff,35.199458,-111.6514259,998.8319313383735
1,United States,AZ,Fort Defiance,35.7531285,-109.069209417053,1206.8680057043555
2,United States,AZ,Los Alamos,32.51927,-114.7458253,897.1418733328178
1,United States,AZ,Maricopa,33.34883,-112.49123,1014.4582432675196
2,United States,AZ,Phoenix,33.4485866,-112.0773456,1042.2875787786397
1,United States,AZ,Scottsdale,33.5091215,-111.8992365,1053.5201874746178
121,United States,AZ,Tempe,33.4255056,-111.9400125,1054.682745328663
238,United States,AZ,Tucson,32.2218917,-110.9262353,1204.937604434824
1,United States,CA,Akron,41.083064,-81.518485,3510.968685286038
6,United States,CA,Alameda,37.6090291,-121.899142,42.83970761957299
2,United States,CA,Albany,37.88687,-122.2977475,30.318132319148322
1,United States,CA,Albuquerque,35.0841034,-106.6509851,1438.1813944143862
1,United States,CA,Aliso Viejo,33.5761376,-117.7258122,616.0489270891484
1,United States,CA,Apple Valley,34.5008311,-117.1858759,582.3316737830733
1,United States,CA,Arcadia,34.1362075,-118.0401497,550.7741743006376
9,United States,CA,Arcata,40.866517,-124.08284,388.84618309892227
6,United States,CA,Bakersfield,35.3738712,-119.0194639,391.2677419673128
471,United States,CA,Berkeley,37.8708393,-122.2728639,29.2593211057745
1,United States,CA,Big Bear City,34.267886,-116.848597853191,622.6864826930014
1,United States,CA,Big Pine,37.165942,-118.300583273317,365.0949059457468
1,United States,CA,Bodega Bay,38.273529,-123.0061118,90.61785209213258
1,United States,CA,Boulder,65.5379781,-164.3251705,4110.4451596251865
1,United States,CA,Brea,33.9170444,-117.8888557,577.9965798335817
1,United States,CA,Burbank,34.1816482,-118.3258554,529.0094620385031
1,United States,CA,Burlingame,37.5841026,-122.3660825,4.5431205815861295
1,United States,CA,Camarillo,34.2164099,-119.0376573,483.7078138743095
1,United States,CA,Cambridge,33.552447,-117.108754,657.4237214070981
1,United States,CA,Campbell,37.2883259,-121.9456328,53.66560990684191
1,United States,CA,Carlsbad,33.1580933,-117.3505966,673.9058779470646
4,United States,CA,Carson,33.8322043,-118.2517547,562.5652537161529
13,United States,CA,Chico,39.7284945,-121.8374777,238.5783048258092
2,United States,CA,Claremont,34.0966764,-117.7197785,574.7649293198864
1,United States,CA,Concord,37.9768525,-122.0335624,50.00236055384766
1,United States,CA,Corvallis,44.5645659,-123.2620435,774.469361483266
2,United States,CA,Costa Mesa,33.6633386,-117.903317,597.8727006997821
193,United States,CA,Davis,38.545379,-121.7445835,116.7990448707706
4,United States,CA,Diamond Bar,34.0286226,-117.8103367,574.1442020421896
1,United States,CA,Durham,39.62743635,-121.804437480864,228.2201517077129
1,United States,CA,El Granada,37.513127,-122.467315826609,14.18851457174231
1,United States,CA,El Portal,37.6746526,-119.7840681,229.516000340177
10,United States,CA,El Segundo,33.917028,-118.4156337,545.5913958696972
1,United States,CA,Eldridge,38.33464395,-122.507113436484,79.78621233249476
1,United States,CA,Elk Grove,38.4087993,-121.3716178,124.58833309797686
2,United States,CA,Encinitas,33.0369867,-117.2919818,687.6269775251524
1,United States,CA,Foothill Ranch,33.6837644,-117.6622499,611.2231834467224
2,United States,CA,Fremont,37.5482697,-121.9885719,35.88952747010859
10,United States,CA,Fresno,36.7295295,-119.708861260756,257.40107762114565
3,United States,CA,Fullerton,33.8708215,-117.9294165,579.1786377152305
1,United States,CA,Glendale,34.142498,-118.248596,537.0340400441644
1,United States,CA,Hanover,37.3546033,-121.892530139201,52.663890710083514
9,United States,CA,Hayward,37.6688205,-122.0807964,27.25535185020512
8,United States,CA,Huntington Beach,33.6783336,-118.0000166,590.7140362976545
130,United States,CA,Irvine,33.6856969,-117.8259819,600.7991366631179
1,United States,CA,Kensington,37.9073485,-122.276178146732,33.019390579820694
120,United States,CA,La Jolla,32.83259,-117.2716839,706.1419492051745
80,United States,CA,Livermore,37.6820583,-121.7680531,54.76189568688611
1,United States,CA,Loma Linda,34.075626,-117.25204775,607.9288625409827
7,United States,CA,Long Beach,33.7690164,-118.1916048,571.5125408899123
1,United States,CA,Los Altos,37.3790629,-122.116578,35.90495866260906
1,United States,CA,Los Altos Hills,37.3796627,-122.1374637,34.664337136469086
298,United States,CA,Los Angeles,34.0536909,-118.2427666,544.6589416442855
4,United States,CA,Malibu,34.035591,-118.689423,519.359116375223
1,United States,CA,Mammoth Lakes,37.6268015,-118.846749997302,312.25052303667314
1,United States,CA,McClellan,39.5536938,-80.2850818,3640.6427336864326
116,United States,CA,Menlo Park,37.4519671,-122.1779927,26.263385404783882
35,United States,CA,Merced,37.3029568,-120.4843269,171.765851875405
1,United States,CA,Modesto,37.6390972,-120.9968782,122.4617697702858
75,United States,CA,Moffett Field,37.41129325,-122.054169803106,37.41451785978103
37,United States,CA,Monterey,36.600256,-121.8946388,121.4972209608674
12,United States,CA,Moss Landing,36.7988827,-121.7865811,105.67347425614682
22,United States,CA,Mountain View,37.3893889,-122.0832101,37.1045808172245
1,United States,CA,Nevada City,39.2615606,-121.0160594,217.63770011961822
1,United States,CA,New York,34.0143928,-117.898451,569.5796056933482
1,United States,CA,Norman,39.4079402,-122.1919241,198.9074095997907
14,United States,CA,Northridge,34.2345615,-118.5369316,511.60708948168167
9,United States,CA,Oakland,37.8044557,-122.2713563,22.513205387743085
16,United States,CA,Orange,33.7500378,-117.8704931,592.740009210995
1,United States,CA,Orinda,37.8771476,-122.1796888,33.519883279266125
1,United States,CA,Pacific Palisades,34.0480643,-118.5264706,527.8759793476023
1,United States,CA,Palisades,32.974109,-117.0493669,707.8295397831153
2,United States,CA,Palmdale,34.5793131,-118.1171108,511.4126473865863
22,United States,CA,Palo Alto,37.4443293,-122.1598465,27.992800856009143
518,United States,CA,Pasadena,34.1476452,-118.1444779,543.1923489604447
6,United States,CA,Petaluma,38.270022,-122.606122413043,74.48001014197331
1,United States,CA,Placerville,38.7296252,-120.798546,185.47769105018165
1,United States,CA,Pleasanton,37.6624312,-121.8746789,45.175963796681394
9,United States,CA,Pomona,34.0553813,-117.7517496,575.8690890373388
1,United States,CA,Redding,40.5863563,-122.3916754,329.0459826865281
3,United States,CA,Redlands,34.055735,-117.1888961,613.7485113563015
1,United States,CA,Redmond,47.6694141,-122.1238767,1116.2799366483562
2,United States,CA,Redwood City,37.4863239,-122.2325233,20.188814683682097
8,United States,CA,Reno,39.52927,-119.8136744,308.1529319472225
1,United States,CA,Richland,33.1542054,-117.1411443,687.2573838415478
2,United States,CA,Richmond,37.9357576,-122.3477486,34.92142195356341
68,United States,CA,Riverside,33.9533546,-117.3961623,607.3303925352225
10,United States,CA,Rohnert Park,38.3396367,-122.7010984,84.33646152001421
1,United States,CA,Roseville,38.7521235,-121.2880059,157.9346328309754
1,United States,CA,Ross,37.9624239,-122.5549775,40.62611086392827
60,United States,CA,Sacramento,38.5815719,-121.4943996,131.9951062247474
3,United States,CA,San Bernardino,34.1083449,-117.2897652,602.9151260164057
1,United States,CA,San Clemente,33.4270275,-117.6124179,635.4050369714807
43,United States,CA,San Diego,32.7174209,-117.1627714,722.4868175498873
64,United States,CA,San Francisco,37.7792808,-122.4192363,17.68064160411511
35,United States,CA,San Jose,37.3361905,-121.8905833,53.98726931664259
6,United States,CA,San Luis Obispo,35.272584,-120.657094365302,303.2436379929049
5,United States,CA,San Marcos,33.1433723,-117.1661449,686.5777774020695
4,United States,CA,San Mateo,37.496904,-122.3330573,14.645212244236177
2,United States,CA,San Rafael,37.9735346,-122.5310874,41.06245142208771
93,United States,CA,Santa Barbara,34.4221319,-119.7026673,429.5052612289523
5,United States,CA,Santa Clara,37.3541132,-121.9551744,48.22602314297024
99,United States,CA,Santa Cruz,36.9749416,-122.0285259,78.47269483272576
1,United States,CA,Santa Maria,34.9531295,-120.4358577,344.0202913675636
6,United States,CA,Santa Monica,34.0250724,-118.4965129,531.6096315929436
8,United States,CA,Santa Rosa,38.4404675,-122.7144314,95.31705275955188
7,United States,CA,Seaside,36.6258085,-121.817035888794,121.5444245320262
1,United States,CA,Seattle,41.9641881,-121.922629,483.68134751603293
1,United States,CA,Solana Beach,32.9905597,-117.2691316,692.9205412153649
1,United States,CA,Solvang,34.5958572,-120.1390894,391.94050786676
1,United States,CA,Somerset,41.8523707,-121.991118,470.8512580782279
264,United States,CA,Stanford,37.427467,-122.1702445,28.73312818976159
1,United States,CA,Stockton,37.9577016,-121.2907796,103.23775429641582
1,United States,CA,Sunnyvale,37.3688301,-122.0363496,41.68767479898966
1,United States,CA,Tahoe City,39.1689372,-120.1434787,260.331871074128
1,United States,CA,Truckee,39.327962,-120.1832533,269.6585076858487
1,United States,CA,Tucson,33.5676301,-117.5937028,624.9951004949783
1,United States,CA,Turlock,37.4946568,-120.8465941,136.5827750104518
7,United States,CA,Vallejo,38.1040864,-122.2566367,54.62191012243301
5,United States,CA,Walnut Creek,37.9020731,-122.0618702,42.06245598412351
1,United States,CA,Waterford,37.6413202,-120.7604834,143.32713148246847
1,United States,CA,West Sacramento,38.5804609,-121.530234,130.06128702895526
2,United States,CA,Whittier,33.9708782,-118.0308396,564.66373127994
1,United States,CA,Woodland,38.6786109,-121.7733285,128.87639885087253
1,United States,CA,Woodside,37.4299388,-122.2538557,24.269702738932484
2,United States,CO,Arvada,39.8211225,-105.220742990446,1509.9950947910304
1,United States,CO,Aurora,39.729432,-104.8319196,1542.6286265684078
1,United States,CO,Bandon,43.1188464,-124.4080001,634.0164264530475
752,United States,CO,Boulder,40.0149856,-105.2705456,1507.3424854729503
2,United States,CO,Broomfield,39.9379892,-105.0587294,1524.7246114937095
10,United States,CO,Colorado Springs,38.8339578,-104.8253485,1540.9154617501767
1,United States,CO,Crested Butte,38.869748,-106.984111,1353.5453605594491
66,United States,CO,Denver,39.7392364,-104.9848623,1529.5992831930296
1,United States,CO,Dillon,39.6225432,-106.041094152787,1438.3649947906513
3,United States,CO,Durango,37.27242475,-107.88290324965,1282.482586041654
138,United States,CO,Fort Collins,40.5508527,-105.0668085,1530.4625044581537
92,United States,CO,Golden,39.755543,-105.2210997,1509.4961163276632
1,United States,CO,Greeley,40.4233142,-104.7091322,1559.0715427783919
1,United States,CO,Greenbelt,38.9937333,-76.883065797021,3940.684504999352
1,United States,CO,Lafayette,40.0024435,-105.1095799773,1520.9315636805848
11,United States,CO,Lakewood,39.6311085,-105.11005818223,1518.2216202633815
4,United States,CO,Longmont,40.1672117,-105.1019287,1523.1144514914165
1,United States,CO,Lyons,40.224432,-105.270532,1509.4108535219243
1,United States,CO,Morrison,39.6535988,-105.1910996,1511.4069058309217
1,United States,CO,Superior,39.9527634,-105.1685977,1515.4821390797704
3,United States,CO,USAF Academy,38.77406895,-104.30153449109,1586.5019830191277
1,United States,CO,Westminster,39.8366528,-105.0372046,1525.786668785454
1,United States,CT,Boulder,41.3376362,-72.1992302,4277.19770564816
1,United States,CT,Danbury,41.394817,-73.4540111,4172.968233369929
20,United States,CT,Groton,41.3506989,-72.0773654,4286.902848441119
2,United States,CT,Hartford,41.764582,-72.6908547,4227.816625782789
4,United States,CT,Middletown,41.5623178,-72.6509061,4235.315454144265
1,United States,CT,Mystic,41.3542656,-71.966462,4295.916498517454
45,United States,CT,New Haven,41.3082138,-72.9250518,4218.2569040534145
1,United States,CT,Simsbury,41.8684156,-72.826476145497,4214.6154309168305
25,United States,CT,Storrs,41.8084314,-72.2495231,4262.940767528854
1,United States,CT,Storrs Mansfield,41.8296985,-72.286525,4259.476522012725
1,United States,CT,Willimantic,41.7125169,-72.2115623,4268.063603769122
320,United States,DC,Washington,38.8948932,-77.0365529,3930.0774796552128
4,United States,DE,Dover,39.158168,-75.5243682,4051.4004047646695
3,United States,DE,Lewes,38.7745565,-75.1393498,4093.5782832952405
57,United States,DE,Newark,39.6852191,-75.7508289,4019.770263281391
5,United States,FL,Boca Raton,26.3586885,-80.0830984,4149.31295051829
2,United States,FL,Coral Gables,25.6905515,-80.235008979837,4171.4023888429565
2,United States,FL,Davie,26.075729,-80.2841089753086,4146.5454357278595
26,United States,FL,Daytona Beach,29.2108147,-81.0228331,3925.227508013288
37,United States,FL,Ft Walton Beach,30.4057552,-86.618842,3377.404862261912
36,United States,FL,Gainesville,29.6519396,-82.3249961,3789.9847134734287
2,United States,FL,Jacksonville,30.3321838,-81.655651,3818.6164438578717
14,United States,FL,Melbourne,28.0836269,-80.6081089,4015.6372884645557
59,United States,FL,Miami,25.7742658,-80.1936589,4170.544795203142
1,United States,FL,Micanopy,29.5045307,-82.27959,3800.7369277557327
1,United States,FL,Notre Dame,25.82133945,-80.1901508196871,4168.335096363421
22,United States,FL,Orlando,28.5421097,-81.3790388,3925.4169379592913
1,United States,FL,Ormond Beach,29.2854132,-81.0557921,3918.8539891673017
2,United States,FL,Patrick AFB,28.2422228,-80.6091073934356,4007.8134425961284
11,United States,FL,Pensacola,30.421309,-87.2169149,3323.9987278045505
1,United States,FL,Richland,28.2830625,-82.1428607,3870.609178135574
18,United States,FL,St. Petersburg,27.7703796,-82.6695085,3849.518911859964
1,United States,FL,Stuart,27.197983,-80.2519175,4091.1775632394024
31,United States,FL,Tallahassee,30.4380832,-84.2809332,3582.229572200003
33,United States,FL,Tampa,27.9477595,-82.458444,3859.2770460479173
1,United States,FL,Venus,27.0672755,-81.3567397,4000.579313427158
2,United States,FL,West Palm Beach,26.7153425,-80.0533746,4133.373492820026
1,United States,GA,Acworth,34.0659329,-84.6768796,3406.3548046912006
32,United States,GA,Athens,33.9597677,-83.376398,3524.305946274696
81,United States,GA,Atlanta,33.7490987,-84.3901849,3442.4113236423527
1,United States,GA,Fort Valley,32.5537585,-83.8874084,3530.262676174933
1,United States,GA,Kennesaw,34.0234337,-84.6154897,3413.1892266834575
2,United States,GA,Norcross,33.9412127,-84.2135309,3451.3393373588756
1,United States,GA,Oakwood,33.5481691,-83.9743544,3486.0485956815587
1,United States,GA,Savannah,32.0809263,-81.0911768,3795.2057470780887
5,United States,GA,Statesboro,32.4490141,-81.7832912,3719.769493087033
1,United States,HI,Ewa Beach,21.315603,-158.008804,3866.8316257798206
2,United States,HI,Hawaii Volcanoes National Park,19.3031881,-155.240502121651,3774.068353899504
1,United States,HI,Hilo,19.707243,-155.081635,3732.818033680285
83,United States,HI,Honolulu,21.304547,-157.8556764,3854.676111526841
1,United States,HI,Kaneohe,21.4055,-157.796071607204,3843.1164692724365
1,United States,HI,Kapolei,21.3339504,-158.0771853,3871.3955421485716
1,United States,HI,Mauna Kea,19.8206888,-155.4680379,3756.4008418019994
1,United States,HI,Wahiawa,21.5006241,-158.01667201816,3855.530395175884
25,United States,IA,Ames,42.0267703,-93.6170554,2498.4833755876693
5,United States,IA,Cedar Falls,42.5274123,-92.4453179,2596.8686533799037
1,United States,IA,Cedar Rapids,41.9758872,-91.6704053,2659.6460593739907
1,United States,IA,Davenport,41.5236436,-90.5776368,2751.118147170247
1,United States,IA,Decorah,43.3033056,-91.7857092,2654.629033682243
1,United States,IA,Grinnell,41.7430554,-92.7224206,2572.170822935171
64,United States,IA,Iowa City,41.6612561,-91.5299106,2671.4495593612755
56,United States,ID,Boise,43.6166163,-116.200886,846.1046630563095
3,United States,ID,Idaho Falls,43.4935245,-112.0400919,1090.6557070653053
1,United States,ID,Kimberly,42.5338019,-114.3647561,874.1064723795939
1,United States,ID,Lewisburg,46.2651949,-116.4050453,1079.6590149770982
1,United States,ID,Lewiston,46.4165506,-117.0176569,1072.5137801876235
40,United States,ID,Moscow,46.7323875,-117.0001651,1104.6722723359833
6,United States,ID,Pocatello,42.8688613,-112.4401098,1026.1259783301177
13,United States,IL,Argonne,45.659921,-88.879414,2906.2630616872707
1,United States,IL,Bloomington,40.4731073,-88.9941403,2890.443325404218
3,United States,IL,Carbondale,37.7274692,-89.216655,2910.4460486013645
7,United States,IL,Champaign,40.1164205,-88.2433829,2957.5941224553894
1,United States,IL,Charleston,32.7876012,-79.9402728,3868.977240822185
61,United States,IL,Chicago,41.8755616,-87.6244212,2995.377414994583
8,United States,IL,DeKalb,41.9294736,-88.7503647,2901.789673437761
2,United States,IL,Elsah,38.9561594,-90.3598364,2791.172655610694
29,United States,IL,Evanston,42.0447388,-87.6930459,2988.9038309376683
1,United States,IL,Fairfield,38.2493581,-122.0399663,75.87429420358099
1,United States,IL,Glencoe,42.1350268,-87.7581188,2983.1542314762205
1,United States,IL,Harvard,42.36782045,-71.1266665287448,4342.534641701496
1,United States,IL,Hinsdale,41.8024604,-87.9299841,2970.3880182301723
2,United States,IL,Lemont,41.673642,-88.0017261,2965.090774530048
1,United States,IL,Lisle,41.801141,-88.0747875,2958.3717947946416
1,United States,IL,Monmouth,40.2932319,-74.1671114,4138.105120902316
3,United States,IL,Normal,40.5117699,-88.9944815,2890.0706981972066
2,United States,IL,Peoria,40.6938609,-89.5891008,2838.395447545264
1,United States,IL,Rosemont,41.9941334,-87.8756737,2974.006083400254
129,United States,IL,Urbana,40.1117174,-88.207301,2960.7069850954135
2,United States,IL,Wheaton,41.8646959,-88.1101709,2955.1399161316785
50,United States,IN,Bloomington,39.1670396,-86.5342881,3116.1140205510283
1,United States,IN,Champaign,40.1164205,-88.2433829,2957.5941224553894
1,United States,IN,Evansville,37.9747645,-87.5558483,3049.506845955464
2,United States,IN,Fort Wayne,41.0799898,-85.1386015,3208.7255459363364
1,United States,IN,Gary,41.6021292,-87.3371372,3020.806163373091
16,United States,IN,Indianapolis,39.7683331,-86.1583502,3139.0368974786875
2,United States,IN,Lafayette,40.4167022,-86.8752869,3070.0191858867825
5,United States,IN,Muncie,40.1936892,-85.3865271,3198.5518408334497
30,United States,IN,Notre Dame,41.70456775,-86.2382202601727,3111.4739355346364
1,United States,IN,South Bend,41.6833813,-86.2500066,3110.6489036945545
2,United States,IN,Terre Haute,39.4667025,-87.4139119,3036.419811696311
1,United States,IN,Urbana,40.8983773,-85.7927634,3155.857805444144
72,United States,IN,West Lafayette,40.4258686,-86.9080655,3067.148628933976
54,United States,KS,Lawrence,38.9719384,-95.2359496,2370.767058002775
27,United States,KS,Manhattan,39.1836082,-96.5716694,2253.7297016712664
1,United States,KS,Oakley,39.126385,-100.855611,1884.1978572312933
1,United States,KS,Overland Park,38.9742502,-94.6851702,2418.28597156411
1,United States,KS,Wichita,37.6922361,-97.3375448,2203.465989158036
1,United States,KY,Berea,37.568694,-84.2963224,3339.976183660587
2,United States,KY,Bowling Green,36.9903199,-86.4436018,3167.330486946146
2,United States,KY,Highland Heights,39.0330902,-84.4521512,3296.360499107108
15,United States,KY,Lexington,38.0464066,-84.4970393,3312.040436513989
3,United States,KY,Louisville,38.2542376,-85.759407,3199.031835195093
1,United States,KY,Morehead,38.1839705,-83.4326841,3400.6453988945887
1,United States,KY,Nancy,37.0717419,-84.7479996,3312.6539861318165
61,United States,LA,Baton Rouge,30.4459596,-91.18738,2973.6059161982203
1,United States,LA,Chauvin,29.4385529,-90.5953651,3072.3308215910515
11,United States,LA,Lafayette,30.2240897,-92.0198427,2910.7263244554433
1,United States,LA,Monroe,38.2722313,-90.1792484,2817.1794455896347
18,United States,LA,New Orleans,29.9499323,-90.0701156,3094.287589440764
1,United States,MA,Allston,42.3554344,-71.1321271,4342.349527497015
58,United States,MA,Amherst,42.3803676,-72.523143,4229.151527417776
1,United States,MA,Ann Arbor,42.2681569,-83.7312291,3314.4275712248195
1,United States,MA,Auburn,42.1945385,-71.8356271,4288.635842647094
1,United States,MA,Belchertown,42.2770192,-72.4009146,4241.087278699219
1,United States,MA,Belmont,42.3959296,-71.1786655,4337.746206592825
10,United States,MA,Billerica,42.5584264,-71.268947,4327.137217857979
101,United States,MA,Boston,42.3602534,-71.0582912,4348.22502671094
3,United States,MA,Bridgewater,41.9903787,-70.9750426,4362.8428433181125
1,United States,MA,Brookline,42.3317642,-71.1211635,4343.7288586865125
244,United States,MA,Cambridge,42.3750997,-71.1056157,4344.087231955364
16,United States,MA,Chestnut Hill,42.330653,-71.1622757,4340.42340172714
1,United States,MA,Dudley,42.0450964,-71.930073,4284.036051798982
2,United States,MA,East Wareham,41.7581599,-70.6736446,4392.500915878944
15,United States,MA,Falmouth,41.5514979,-70.6147519,4402.012573281498
1,United States,MA,Gloucester,42.6159286,-70.6619888,4374.942425763613
1,United States,MA,Greenbelt,42.60376555,-70.896372915681,4356.289871028247
1,United States,MA,Hadley,42.3417565,-72.5884222,4224.603603732991
11,United States,MA,Lexington,42.4473175,-71.2245003,4332.984055618047
4,United States,MA,Lowell,42.6334247,-71.3161718,4321.822263704253
7,United States,MA,Medford,42.4184296,-71.1061639,4343.146978000404
1,United States,MA,North Chelmsford,42.6389798,-71.3828403,4316.3319513814395
1,United States,MA,Natick,42.2836393,-71.346996,4326.435931910021
1,United States,MA,Needham,42.283431,-71.2328329,4335.690715348933
1,United States,MA,Newton,42.3370414,-71.2092214,4336.489856544583
3,United States,MA,Northampton,42.3190227,-72.6306344,4221.61842911888
1,United States,MA,Northborough,42.319538,-71.6411786,4301.859006872564
3,United States,MA,Norton,41.9667666,-71.1869939,4346.125234120485
2,United States,MA,Norwood,42.194543,-71.1994976,4340.2536993787835
1,United States,MA,Pasadena,34.1476452,-118.1444779,543.1923489604442
1,United States,MA,Sagamore Beach,41.798439,-70.5289179,4403.373934216339
1,United States,MA,Salem,42.5195292,-70.8967226,4357.988481726062
3,United States,MA,South Hadley,42.2584245,-72.5745332,4227.3545778956095
1,United States,MA,Springfield,42.1014831,-72.589811,4229.215079020034
1,United States,MA,Wakefield,42.506484,-71.0728306,4344.0325707820375
2,United States,MA,Waltham,42.3756401,-71.2358004,4333.540937487104
1,United States,MA,Washington,42.36592,-73.116214,4181.304449794606
5,United States,MA,Wellesley,42.2964859,-71.2925571,4330.58076082148
8,United States,MA,Westford,42.5792583,-71.4378411,4313.079589605214
9,United States,MA,Williamstown,42.712207,-73.2035986,4167.874924077391
57,United States,MA,Woods Hole,41.5239468,-70.6694293,4398.184545090487
10,United States,MA,Worcester,42.2625932,-71.8022934,4289.953708253088
5,United States,MD,Annapolis,38.9786401,-76.492786,3974.0520090362047
80,United States,MD,Baltimore,39.2908816,-76.610759,3956.6247640449064
13,United States,MD,Beltsville,39.0299081,-76.9149547,3937.120569277481
3,United States,MD,Bethesda,38.9848265,-77.0946459,3922.998855698198
1,United States,MD,Bowie,38.9429659,-76.731234,3954.753932569477
1,United States,MD,Brentwood,38.9431727,-76.9566429,3935.6764630917064
2,United States,MD,Cambridge,38.5714624,-76.0763177,4019.500957689645
2,United States,MD,Camp Springs,38.8040027,-76.9066396,3943.292869900147
1,United States,MD,Catonsville,39.2720504,-76.7318456,3946.8542531593353
2,United States,MD,Chevy Chase,38.9932072,-77.0743833,3924.5130353330424
243,United States,MD,College Park,38.980666,-76.9369189,3936.443101894939
14,United States,MD,Columbia,39.2156213,-76.8582049,3937.515069259332
1,United States,MD,Crofton,39.0017772,-76.6874671,3957.0314696761957
5,United States,MD,Edgewater,38.9346773,-76.5532021,3970.0154424381235
1,United States,MD,Ellicott City,39.2673284,-76.7983067,3941.358279998541
6,United States,MD,Frostburg,39.6581425,-78.928357,3753.088143001217
8,United States,MD,Gaithersburg,39.1434406,-77.2013705,3910.2230653378297
2,United States,MD,Germantown,39.1731621,-77.2716502,3903.590717283098
340,United States,MD,Greenbelt,38.9937333,-76.883065797021,3940.6845049993512
1,United States,MD,Hyattsville,38.9529442,-76.9408647,3936.7761737930828
32,United States,MD,Lanham,38.9670551,-76.8619166,3943.115673624151
78,United States,MD,Laurel,39.0992752,-76.8483061,3941.1000159404352
1,United States,MD,Marriottsville,39.3501959,-76.8993808,3930.90821311974
3,United States,MD,Rockville,39.0840054,-77.1527573,3915.7288102983307
2,United States,MD,Salisbury,38.3662114,-75.6008881,4065.1867154269958
37,United States,MD,Silver Spring,38.9959461,-77.0276231,3928.4035375155318
2,United States,MD,Solomons,38.3184577,-76.4541186,3993.9736293721617
4,United States,MD,Towson,39.4018552,-76.602388,3954.7416116108693
1,United States,MD,Washington,39.5893502,-77.710254,3857.2037170493318
1,United States,MD,Crofton,39.0017772,-76.6874671,3957.0314696761957
1,United States,ME,Augusta,44.310583,-69.779663,4412.877013846051
4,United States,ME,Brunswick,43.905599,-69.9759914804754,4404.657869980509
3,United States,ME,East Boothbay,43.8644114,-69.5840856,4436.47335031503
1,United States,ME,Fort Kent,47.258728,-68.589706,4460.423533991212
1,United States,ME,Lincoln,44.1137571,-69.5351337,4435.704732280666
1,United States,ME,Old Town,44.934669,-68.645325,4490.811883702772
22,United States,ME,Orono,44.883607,-68.672791,4489.564647408005
1,United States,ME,Portland,43.6610277,-70.2548596,4387.045773712134
3,United States,ME,Waterville,44.5520105,-69.6317121,4420.2973847969715
1,United States,MI,Albion,42.243097,-84.7530304,3230.493337157213
1,United States,MI,Allendale,42.9722455,-85.9536535,3128.4277647814147
182,United States,MI,Ann Arbor,42.2681569,-83.7312291,3314.4275712248195
3,United States,MI,Berrien Springs,41.9464336,-86.3388965,3101.4947096580986
1,United States,MI,Boulder,40.0149856,-105.2705456,1507.3424854729506
1,United States,MI,College Park,42.4245131,-83.2101926,3355.9812393788507
2,United States,MI,Dearborn,42.3222599,-83.1763145,3359.613966880819
13,United States,MI,Detroit,42.3315509,-83.0466403,3370.19110236762
51,United States,MI,East Lansing,42.7355416,-84.4852469,3249.37166379325
2,United States,MI,Hickory Corners,42.4414265,-85.3755605,3178.0284114455076
1,United States,MI,Holland,42.7876022,-86.1090828,3116.3284889144115
30,United States,MI,Houghton,46.8591287,-88.7774734,2930.465497864545
20,United States,MI,Kalamazoo,42.291707,-85.5872286,3161.4725962220273
1,United States,MI,Midland,43.6155825,-84.2472117,3264.989431941575
5,United States,MI,Mount Pleasant,43.597646,-84.7668495,3223.0939816964606
2,United States,MI,Okemos,42.7220755,-84.4275232,3254.1692351755746
1,United States,MI,Rochester,42.680588,-83.1338214,3360.254833217116
1,United States,MI,Sault Saint Marie,46.4857876,-84.4444794,3255.852053671381
1,United States,MI,Stockbridge,42.4511466,-84.1805146,3276.126308818936
1,United States,MI,Three Rivers,41.9442722,-85.6346222,3159.803777518973
1,United States,MI,Ypsilanti,42.24253,-83.6171426940706,3324.0257155196223
1,United States,MN,Aitkin,46.5714822,-93.3847595,2578.15224787777
1,United States,MN,Bemidji,47.4785418,-94.8907869,2491.608260113256
18,United States,MN,Duluth,46.7729322,-92.1251218,2677.0790427720517
106,United States,MN,Minneapolis,44.9706705,-93.268217735811,2555.311121521636
14,United States,MN,Northfield,44.4582041,-93.161159,2556.0637194502565
1,United States,MN,Saint Peter,44.3238384,-93.9585295,2491.1513472575525
2,United States,MN,St. Cloud,45.5616075,-94.1642004,2496.80456914075
25,United States,MN,St. Paul,44.9504037,-93.1015026,2568.0044106814416
1,United States,MN,Twin Cities,38.2910251,-121.31106,119.99645948701658
1,United States,MN,Winona,44.0500054,-91.6392294,2672.2611540132557
18,United States,MO,Columbia,38.951883,-92.3337366,2621.304029155041
10,United States,MO,Kansas City,39.100105,-94.5781416,2426.2786335165815
1,United States,MO,Lemont,41.1202391,-101.068865,1872.3234702047068
1,United States,MO,Maryville,40.3461017,-94.8724707,2393.0868637701074
25,United States,MO,Rolla,37.9509324,-91.7708076,2684.600903654145
1,United States,MO,Saint Charles,38.7946252,-90.519829,2779.6718411019447
2,United States,MO,Springfield,37.2166779,-93.2920373,2565.242598138935
35,United States,MO,St. Louis,38.6268039,-90.1994097,2809.7749116826644
1,United States,MS,College Park,32.2993128,-90.2128667,2981.7510685718935
3,United States,MS,Jackson,32.2990384,-90.1847691,2984.241137852937
1,United States,MS,Long Beach,30.3504751,-89.1528176,3156.6757130583264
6,United States,MS,Mississippi State,33.4549304,-88.7859584,3065.164766870381
5,United States,MS,Oxford,34.3664127,-89.5187664,2970.1605602766344
1,United States,MS,Starkville,33.4503998,-88.8183872,3062.4611507849263
20,United States,MS,Stennis Space Center,30.3650453,-89.6266351,3114.3523630210348
5,United States,MS,Vicksburg,32.3528418,-90.8777342,2921.0143513617886
1,United States,MT,Arlee,47.1618716,-114.0851093,1259.2254537965794
40,United States,MT,Bozeman,45.679984,-111.044675,1298.7984675482169
10,United States,MT,Butte,46.0131505,-112.5365089,1238.215907792633
1,United States,MT,Dillon,45.216416,-112.6378442,1171.0014270205902
1,United States,MT,Ennis,45.348817,-111.729697,1234.1292448565644
1,United States,MT,Helena,46.592712,-112.036109,1311.1985744629153
1,United States,MT,Menlo Park,37.4519671,-122.1779927,26.263385404781765
32,United States,MT,Missoula,46.8700801,-113.9952796,1237.1221472118696
11,United States,NC,Asheville,35.6009498,-82.5540161,3543.6177183117334
1,United States,NC,Beaufort,34.7180601,-76.6591587,4085.862116357443
7,United States,NC,Boone,36.216795,-81.6745517,3602.1837296881786
44,United States,NC,Chapel Hill,35.9131542,-79.05578,3838.532024802515
5,United States,NC,Charlotte,35.2270869,-80.8431268,3704.415153211238
1,United States,NC,Clemmons,36.0215258,-80.3819984,3720.1523484471754
3,United States,NC,Cullowhee,35.3137739,-83.1765814,3497.9177240213244
1,United States,NC,Davidson,35.7902384,-80.2115053,3741.927604542619
1,United States,NC,Denver,35.5312452,-81.0297994,3678.6381540056354
46,United States,NC,Durham,35.996653,-78.9018053,3849.3283721793437
1,United States,NC,Elizabeth City,36.2956836,-76.2247697,4071.5410104212006
1,United States,NC,Fort Bragg,35.1422775,-78.9987278869195,3867.9132178983323
9,United States,NC,Greensboro,36.0726355,-79.7919754,3769.8388383415136
2,United States,NC,Greenville,35.612661,-77.3663538,3994.4928729371095
1,United States,NC,High point,35.9556924,-80.0053176,3754.8315078163027
1,United States,NC,Merced,37.3029568,-120.4843269,171.76585187540465
2,United States,NC,Morrisville,35.824341,-78.8300321,3860.8558009846033
1,United States,NC,Otto,35.0600921,-83.3876547,3487.274146770568
50,United States,NC,Raleigh,35.7803977,-78.6390989,3878.7887025504065
13,United States,NC,Research Triangle Park,35.89212155,-78.8696813409536,3855.320711174394
1,United States,NC,Swannanoa,35.5978935,-82.3998431,3557.1607460686937
1,United States,NC,Wanchese,35.8426729,-75.6385055,4136.561664318234
9,United States,NC,Wilmington,34.2257282,-77.9447107,3991.0294475275314
1,United States,ND,Bismarck,46.808327,-100.783739,2044.8393673135631
6,United States,ND,Fargo,46.877229,-96.789821,2334.637545813832
18,United States,ND,Grand Forks,47.9078244,-97.0592028,2351.275903060741
1,United States,ND,Jamestown,46.910544,-98.708436,2196.8360256190085
1,United States,ND,Mandan,46.826415,-100.889704,2038.114528614531
2,United States,NE,Bellevue,41.1366494,-95.8907373,2306.5768096768907
33,United States,NE,Lincoln,40.8,-96.667821,2240.620085340701
5,United States,NE,Omaha,41.2587459,-95.9383758,2302.8669850488654
1,United States,NH,Alexandria,43.61172,-71.792908,4265.4348930215765
93,United States,NH,Durham,43.134564,-70.927048,4343.325349035012
66,United States,NH,Hanover,43.703622,-72.288666,4224.361339828004
1,United States,NH,Morgantown,39.6296809,-79.9559437,3666.9470220021167
2,United States,NH,Nashua,42.7653662,-71.467566,4307.015098204595
1,United States,NH,Pembroke,43.14709,-71.457825,4300.535244370079
1,United States,NH,Plymouth,43.757209,-71.688538,4271.274934299732
1,United States,NH,West Thornton,43.9359021,-71.6875798,4268.369204141055
9,United States,NJ,Edison,40.5382375,-74.3945173450877,4113.689505002825
1,United States,NJ,Galloway,39.4646097,-74.4986142,4130.1109046233305
4,United States,NJ,Glassboro,39.7027677,-75.1119434,4072.9332327468624
1,United States,NJ,Hanover,40.8174216,-74.3954057,4107.537761667534
1,United States,NJ,Highlands,40.40372,-73.991527,4150.179041976534
1,United States,NJ,Hoboken,40.7433066,-74.0323752,4139.1995771461125
1,United States,NJ,Lyndhurst,40.8120247,-74.1242816,4130.094037396008
8,United States,NJ,Montclair,40.8164458,-74.2210643,4121.989126909205
32,United States,NJ,New Brunswick,40.4862174,-74.4518173,4110.0833710598845
1,United States,NJ,New Lisbon,39.9581699,-74.6279344,4107.436354223066
17,United States,NJ,Newark,40.735657,-74.1723667,4127.7740478474125
12,United States,NJ,Piscataway,40.5462553,-74.4660408,4107.574365392471
142,United States,NJ,Princeton,40.3492744,-74.6592958,4095.8830428413567
1,United States,NJ,Seattle,40.0890765,-74.123539,4146.464900609625
1,United States,NJ,South River,40.446495,-74.3859831,4116.4380174170565
1,United States,NJ,Teaneck,40.8860164,-74.0072568,4138.172432059161
1,United States,NJ,Wayne,40.9491723,-74.2376802,4117.773379270793
2,United States,NJ,West Long Branch,40.2903891,-74.0176381,4150.605046059728
1,United States,NM,Alamos,35.81831485,-106.265427979899,1451.988368207929
94,United States,NM,Albuquerque,35.0841034,-106.6509851,1438.181394414386
1,United States,NM,Boulder,32.770288,-108.148798,1401.802836933906
1,United States,NM,Clovis,34.405472,-103.2050709,1762.079001660452
1,United States,NM,Crownpoint,35.679,-108.1472048,1289.8439249015194
3,United States,NM,Gallup,35.5283573,-108.7439489,1241.5805748873154
8,United States,NM,Kirtland AFB,34.99806195,-106.515677597019,1452.684505095378
20,United States,NM,Las Cruces,32.3140354,-106.7798078,1539.420564227238
119,United States,NM,Los Alamos,35.8814009,-106.2989958,1447.5049463602018
47,United States,NM,Socorro,34.0572858,-106.8930799,1452.4018669890177
1,United States,NM,White Sands Missile,32.5629877,-106.5698765,1544.9093711287233
1,United States,NM,Zuni,35.5346578,-108.6362939,1250.8437865805913
2,United States,NV,Boulder City,35.9787638,-114.8337739,697.8394209806806
1,United States,NV,Carson City,39.1648969,-119.7665825,285.64134103678975
18,United States,NV,Las Vegas,36.1662859,-115.149225,664.619495648847
83,United States,NV,Reno,39.52927,-119.8136744,308.1529319472229
1,United States,NV,Winnemucca,40.9729584,-117.7356849,546.789495570632
36,United States,NY,Albany,42.6511674,-73.754968,4124.337946914506
1,United States,NY,Armonk,41.1264847,-73.7139777,4157.227900561289
1,United States,NY,Bayside,40.7684351,-73.7770774,4159.7778382784
12,United States,NY,Binghamton,42.096968,-75.914341,3958.0771547892637
1,United States,NY,Boulder,40.8712552,-72.7424531,4242.963403247883
1,United States,NY,Brockport,43.213671,-77.93918,3777.5787073398315
7,United States,NY,Bronx,40.85048545,-73.8404035580209,4152.738562765956
5,United States,NY,Brooklyn,40.6501038,-73.9495823,4148.114822814133
33,United States,NY,Buffalo,42.8867166,-78.8783922,3705.237223158024
1,United States,NY,Chester,41.3625937,-74.2712613,4106.441573174584
1,United States,NY,Clifton Park,42.8656325,-73.7709535,4119.358402694209
4,United States,NY,Clinton,44.7278943,-73.6686982,4100.287444937945
11,United States,NY,Flushing,40.7654301,-73.8174291,4156.505182875311
1,United States,NY,Fredonia,42.440058,-79.331711,3673.596466618004
2,United States,NY,Geneva,42.8690271,-76.9786122,3859.6820703674025
1,United States,NY,Greenbelt,40.7479216,-73.1558229,4211.620729137212
4,United States,NY,Hamilton,43.6307863,-74.4659275,4051.553783301386
1,United States,NY,Holbrook,40.8123205,-73.078443,4216.5586657149215
80,United States,NY,Ithaca,42.4396039,-76.4968019,3905.043379235418
2,United States,NY,Jamaica,40.6914852,-73.8056771,4159.115930613371
1,United States,NY,Kinderhook,42.3953617,-73.6978983,4133.523404378318
1,United States,NY,Loudonville,42.7048009,-73.7548424,4123.414916098773
1,United States,NY,Millbrook,41.7870861,-73.7149605,4143.631878501227
4,United States,NY,New Paltz,41.7464972,-74.0844894,4114.175562706717
152,United States,NY,New York,40.7127281,-74.0060152,4142.054319794481
1,United States,NY,Oneonta,42.453492,-75.0629531,4021.559594145582
2,United States,NY,Oswego,43.4112973,-76.1279841,3921.183327237698
158,United States,NY,Palisades,41.0111793,-73.91346,4143.231989247941
1,United States,NY,Port Washington,40.8256561,-73.6981858,4165.041586196634
3,United States,NY,Potsdam,44.6697996,-74.9813349,3997.4970839929315
4,United States,NY,Poughkeepsie,41.7065779,-73.9284101,4127.73923386052
26,United States,NY,Rochester,43.157285,-77.615214,3804.4328405194096
1,United States,NY,Saratoga Springs,43.0821793,-73.7853915,4114.591609716937
1,United States,NY,Schenectady,42.8142432,-73.9395687,4106.602122918653
1,United States,NY,Staten Island,40.5834557,-74.1496048,4133.011804086539
25,United States,NY,Stony Brook,40.9256538,-73.140943,4208.857422502207
1,United States,NY,Suffern,41.1151372,-74.1493948,4121.565515099162
2,United States,NY,Syosset,40.8262101,-73.502068,4181.242260826512
37,United States,NY,Syracuse,43.0481221,-76.1474244,3924.514462569548
13,United States,NY,Troy,42.7284117,-73.6917878,4128.107448394793
1,United States,NY,Tupper Lake,44.224044,-74.464302,4043.691144955278
21,United States,NY,Upton,40.869543,-72.8867697,4231.092613323431
1,United States,NY,Washington,43.2294536,-73.4471343,4139.396678662029
